stop_id,stop_name,stop_desc,stop_lat,stop_lon,zone_id,stop_url
1000a,Babadağı,,37.866175,32.5275417,,
1000d,Babadağı,,37.8661833,32.5274333,,
1001a,Taşkın Paşa,,37.863103,32.528414,,
1001d,Taşkın Paşa,,37.863067,32.52823719,,
1002a,Tütüncü,,37.8623417,32.52647,,
1002d,Tütüncü,,37.8625083,32.52643,,
1003a,Çayır Cami,,37.861663,32.530603,,
1003d,Çayır Cami,,37.86186,32.530716,,
1004a,Şirineli,,37.861214,32.533907,,
1004d,Şirineli,,37.86139,32.533929,,
1005a,Akgöl,,37.860929,32.536343,,
1005d,Akgöl,,37.8610267,32.53664,,
1006a,Cemil Çiçek,,37.86055,32.54037,,
1006d,Cemil Çiçek,,37.86075,32.54038,,
1007a,Gufran,,37.870287,32.535682,,
1007d,Gufran,,37.870245,32.535339,,
1008a,Adalet Sarayı,,37.8607083,32.54321,,
1008d,Adalet Sarayı,,37.8607167,32.54282,,
1009a,Yeniceler,,37.866588,32.543497,,
1009d,Yeniceler,,37.866579,32.543247,,
100a,Babil,,37.866743,32.475161,,
100d,Babil,,37.866737,32.475065,,
1010a,Akyokuş Kasrı,,37.879772,32.424767,,
1011a,Özbaşak,,37.8670167,32.5373,,
1011d,Özbaşak,,37.8669333,32.53732,,
1012a,Çifteler,,37.866925,32.53371,,
1012d,Çifteler,,37.86685,32.53368,,
1013a,Adalet Konutları,,37.8668084,32.53018,,
1013d,Adalet Konutları,,37.8667583,32.53008,,
1014a,Gaziler Derneği,,37.870606,32.510153,,
1014d,Gaziler Derneği,,37.872233,32.507606,,
1015d,Namık Paşa Cami,,37.871418,32.511983,,
1016a,Mevlana Kültür Merkezi,,37.8704,32.51578,,
1016d,Mevlana Kültür Merkezi,,37.8706,32.51588,,
1017a,Adile Sultan,,37.8703167,32.51942,,
1017d,Adile Sultan,,37.8705167,32.51942,,
1018a,Hacı Kalfa,,37.8700833,32.52402,,
1018d,Hacı Kalfa,,37.8702833,32.52397,,
1019a,Zeliha Seymen İlkokulu,,37.8696334,32.52813,,
1019d,Zeliha Seymen İlkokulu,,37.8698333,32.52809,,
101a,Havzan,,37.8674493,32.472535,,
101d,Havzan,,37.8674833,32.4725333,,
1020a,Spor Ve Kongre Merkezi,,37.8688333,32.53452,,
1020d,Spor Ve Kongre Merkezi,,37.86905,32.53408,,
1021a,Nefer,,37.8687167,32.53845,,
1021d,Nefer,,37.8689167,32.53847,,
1022a,Akraba,,37.868767,32.544158,,
1022d,Akraba,,37.868993,32.544142,,
1023a,İnebahtı,,37.868523,32.544614,,
1024a,Tiftikci (e),,37.8689167,32.5518,,
1024d,Tiftikci (e),,37.86915,32.55163,,
1025a,Hobi Bahçesi,,37.868525,32.55476,,
1025d,Hobi Bahçesi,,37.8687334,32.55482,,
1026a,Uluyatır,,37.86805,32.55789,,
1026d,Uluyatır,,37.868225,32.55839,,
1027a,İşbitiren,,37.86666884,32.566456,,
1027d,İşbitiren,,37.867094,32.566356,,
1028a,Fetihkent İlkokulu,,37.87595,32.5374083,,
1028d,Fetihkent İlkokulu,,37.876275,32.537325,,
1029a,Okyar,,37.866249,32.57027,,
1029d,Okyar,,37.866484,32.570407,,
102a,Oltu,,37.866741,32.469512,,
102d,Oltu,,37.866828,32.469443,,
1030a,Karatay Belediyesi Tatlıcak Tesisleri 1,,37.8658584,32.57299,,
1030d,Karatay Belediyesi Tatlıcak Tesisleri 1,,37.8661,32.57338,,
1031a,Taştepe,,37.864937,32.581329,,
1031d,Taştepe,,37.864594,32.581222,,
1032a,Türkan,,37.8636667,32.58768,,
1032d,Türkan,,37.86385,32.58783,,
1033a,Masal,,37.8630333,32.59196,,
1033d,Masal,,37.8632083,32.5922,,
1034a,Taşçılar (e),,37.8625833,32.59493,,
1034d,Taşçılar (e),,37.86275,32.59517,,
1035a,Bağlıca,,37.861275,32.60372,,
1035d,Bağlıca,,37.86145,32.60393,,
1036a,Yücesoy,,37.8605583,32.60843,,
1036d,Yücesoy,,37.860775,32.60841,,
1037a,Açma,,37.85877,32.61357,,
1037d,Açma,,37.8587217,32.61365,,
1038a,Tezer,,37.8588833,32.61965,,
1038d,Tezer,,37.8590333,32.61987,,
1039a,Kıvamlı,,37.85805,32.62522,,
1039d,Kıvamlı,,37.858275,32.62503,,
103a,5 Nolu Sağlık Ocağı,,37.8650166,32.4660833,,
103d,5 Nolu Sağlık Ocağı,,37.86525,32.4659167,,
1040a,Yeşilbursa,,37.8597,32.61353,,
1040d,Yeşilbursa,,37.86005,32.61351,,
1041a,Ovalı,,37.8571916,32.63248,,
1041d,Ovalı,,37.8573333,32.63283,,
1042a,Nazım,,37.8558667,32.64358,,
1042d,Nazım,,37.8560667,32.64375,,
1043a,Karabay,,37.8551167,32.65012,,
1043d,Karabay,,37.8553,32.65042,,
1044a,Kasımpatı,,37.854156,32.657225,,
1044d,Kasımpatı,,37.854571,32.656838,,
1045d,Batı,,37.703,32.57303,,
1046a,Toraman Cami,,37.8752417,32.5139917,,
1046d,Toraman Cami,,37.875325,32.5136583,,
1047a,Konya Ereğli 3,,37.8526,32.67095,,
1047d,Konya Ereğli 3,,37.8528,32.67103,,
1048a,Bakırtolu Yolu,,37.849061,32.701427,,
1048d,Bakırtolu Yolu,,37.84927,32.701417,,
1049a,Çarşamba Çayı 2,,37.847976,32.710821,,
1049d,Çarşamba Çayı 2,,37.848177,32.710772,,
104a,Adaletli,,37.8647083,32.469375,,
104d,Adaletli,,37.8647167,32.4691333,,
1050d,Konya Ereğli 1,,37.8470167,32.72088,,
1051d,Konya Ereğli 2,,37.8447,32.74181,,
1052d,Konya Ereğli 4,,37.84521,32.73694,,
1053a,Ayaz,,37.8792248,32.5119591,,
1053d,Ayaz,,37.8792083,32.511825,,
1054a,Sakyatan Girişi,,37.8391,32.7848166,,
1054d,Sakyatan Girişi,,37.839283,32.7847919,,
1055d,Çıngırık,,37.8424416,32.78444,,
1056d,Sakyatan Su Deposu,,37.8398583,32.78684,,
1057d,14401. Sk,,37.842,32.78879,,
1058d,Sakyatan Mahallesi,,37.8449,32.78863,,
1059d,Sakyatan,,37.8447583,32.78517,,
105a,İyigül,,37.8631334,32.4675,,
105d,İyigül,,37.863275,32.468086,,
1060d,Sakyatan Cami,,37.843925,32.78322,,
1061a,Bakırtolu Cami,,37.7929084,32.81531,,
1062a,Şatır Girişi,,37.7937,32.78188,,
1063a,Şatır Çocuk Parkı,,37.7916417,32.77964,,
1064a,Şatır Çıkışı,,37.7931,32.77822,,
1065a,Hacı Veyiszade Efendi,,37.830375,32.72503,,
1066a,Bakırtolu Kooperatif,,37.8378917,32.71856,,
1067a,Beş Evler,,37.8393917,32.71727,,
1068a,Kumral,,37.8787333,32.5368667,,
1068d,Kumral,,37.878579,32.536872,,
1069a,Akın,,37.8528666,32.61273,,
1069d,Akın,,37.8527166,32.61288,,
106a,Taşdemir,,37.863,32.4643333,,
106d,Taşdemir,,37.8631417,32.4644666,,
1070a,Şadan,,37.85,32.61225,,
1070d,Şadan,,37.84995,32.61242,,
1071a,Malazgirt,,37.8469833,32.61188,,
1072a,Caiz,,37.8451666,32.61265,,
1073a,Hasır,,37.843275,32.61683,,
1074a,Tayyarlar,,37.8438667,32.61963,,
1075a,Apalı,,37.8476,32.62267,,
1076a,Kudretli,,37.847676,32.628185,,
1077a,Harmandüzü,,37.847604,32.631437,,
1078a,Gülbeyaz,,37.8510417,32.63127,,
1079a,Kırçiçeği,,37.8524583,32.62773,,
107a,Şehir,,37.861325,32.4647917,,
107d,Şehir,,37.861325,32.464575,,
1080a,Anlatım,,37.8538833,32.62197,,
1081a,Özsezgin,,37.8541167,32.6183,,
1082a,Hakim,,37.8514083,32.61827,,
1083a,Berat,,37.8496417,32.61853,,
1084a,Gözönü,,37.8495667,32.61523,,
1085a,İncekaya,,37.8609166,32.64523,,
1085d,İncekaya,,37.8609166,32.64533,,
1086a,Elisa,,37.8645667,32.6425,,
1087a,Bağlar,,37.8673417,32.58364,,
1087d,Bağlar,,37.8672667,32.58346,,
1088a,Hasbihal,,37.870425,32.58531,,
1088d,Hasbihal,,37.8705,32.58524,,
1089a,Kiremit,,37.8704,32.58712,,
1089d,Kiremit,,37.8704917,32.58712,,
108a,Bayrakçı Sanayi,,37.8593083,32.461525,,
108d,Bayrakçı Sanayi,,37.859425,32.461475,,
1090a,Esenköy,,37.867825,32.58706,,
1090d,Esenköy,,37.8677333,32.58707,,
1091a,Topluca,,37.8657667,32.5863,,
1091d,Topluca,,37.8658,32.58633,,
1092a,Ayçiçeği,,37.8652666,32.58855,,
1092d,Ayçiçeği,,37.8653167,32.58849,,
1093a,Terler,,37.8657083,32.59081,,
1093d,Terler,,37.86575,32.59082,,
1094a,Gülcü,,37.865025,32.59877,,
1094d,Gülcü,,37.8650417,32.59883,,
1095a,Bademyağı,,37.8635583,32.60419,,
1095d,Bademyağı,,37.863575,32.60424,,
1096a,Neyzen,,37.86535,32.60588,,
1096d,Neyzen,,37.86545,32.60583,,
1097a,Harabe,,37.8668667,32.60803,,
1097d,Harabe,,37.8669166,32.60815,,
1098a,Erdemir 4,,37.871178,32.611268,,
1098d,Erdemir 4,,37.8711583,32.61111,,
1099a,Özdemir,,37.8723,32.61218,,
1099d,Özdemir,,37.8722917,32.61223,,
109a,Dökme Tepe,,37.8575833,32.4570333,,
109d,Dökme Tepe,,37.857941,32.456955,,
10a,Millet,,37.869269,32.480426,,
10d,Millet,,37.869139,32.480683,,
1100a,Erdemir 1,,37.8714083,32.61512,,
1100d,Erdemir 1,,37.8713917,32.61516,,
1101a,Erdemir 2,,37.8695,32.61965,,
1101d,Erdemir 2,,37.8695417,32.61965,,
1102a,Erdemir 3,,37.8683083,32.62358,,
1102d,Erdemir 3,,37.8683083,32.62368,,
1103a,Atış Poligon Yolu,,37.8628084,32.62035,,
1103d,Atış Poligon Yolu,,37.8628,32.62041,,
1104a,Şehit Abdullah Aslan 1,,37.865561,32.634231,,
1104d,Şehit Abdullah Aslan 1,,37.865608,32.634243,,
110a,Ateşbaz,,37.8578917,32.453,,
110d,Ateşbaz,,37.858,32.4531333,,
1111a,Seyfullah,,37.87885,32.5332167,,
1111d,Seyfullah,,37.878711,32.533221,,
1112a,Celaliye,,37.8697583,32.5428,,
1112d,Celaliye,,37.8697583,32.543,,
1113a,Kardelen,,37.87035,32.5454167,,
1113d,Kardelen,,37.87029,32.5454167,,
1114a,Akviran,,37.8718667,32.546065,,
1114d,Akviran,,37.8718667,32.546125,,
1115a,Saydamlar,,37.8737183,32.5443583,,
1115d,Saydamlar,,37.8737583,32.5443583,,
1116a,İnce Mehmet,,37.8731667,32.540075,,
1116d,İnce Mehmet,,37.8732167,32.540075,,
1117a,Şeyh Ulema Yahşi Caddesi,,37.87421,32.5379417,,
1117d,Şeyh Ulema Yahşi Caddesi,,37.87425,32.5379417,,
1118a,Fetihkent,,37.8741333,32.5351583,,
1118d,Fetihkent,,37.8741833,32.5351583,,
1119a,Evliya Cami,,37.87364,32.53249,,
1119d,Evliya Cami,,37.8737,32.53242,,
111a,İki Çay Arası,,37.8578833,32.4502,,
111d,İki Çay Arası,,37.858025,32.45015,,
1120a,Yusuf İzzettin,,37.87846,32.531178,,
1120d,Yusuf İzzettin,,37.878401,32.531121,,
1121a,Fetih Cami,,37.8781583,32.5285583,,
1121d,Fetih Cami,,37.8779983,32.5285583,,
1122a,Hacı Veyiszade,,37.8774183,32.5259917,,
1122d,Hacı Veyiszade,,37.8774583,32.5259917,,
1123a,Şeyh Ulema Ovalı Cami,,37.8767683,32.5231083,,
1123d,Şeyh Ulema Ovalı Cami,,37.8768083,32.5231083,,
1124a,Kasım,,37.876244,32.519853,,
1124d,Kasım,,37.876143,32.519858,,
1125a,Hacı Emirzade,,37.8755017,32.5170833,,
1125d,Hacı Emirzade,,37.8755417,32.5170833,,
1126a,Yusuf Ağa Cami,,37.8750417,32.5149333,,
1127a,Zambaklı Cd 2,,37.817041,32.506992,,
1127d,Zambaklı Cd 2,,37.817022,32.506945,,
1128a,Köprübaşı,,37.8745583,32.5077,,
1128d,Köprübaşı,,37.874496,32.50771,,
1129a,Seyit İbrahim,,37.874112,32.5045,,
1129d,Seyit İbrahim,,37.874019,32.504511,,
112a,Yedek Irmak,,37.85695,32.4467,,
112d,Yedek Irmak,,37.8570833,32.4467666,,
1130a,Rumi,,37.871725,32.5045917,,
1131a,Küçükpınar,,37.818116,32.541251,,
1131d,Küçükpınar,,37.818092,32.541143,,
1132a,Akşamyıldızı,,37.824471,32.599246,,
1132d,Akşamyıldızı,,37.824541,32.59917,,
1133a,Hanefi,,37.818882,32.598596,,
1133d,Hanefi,,37.818872,32.598659,,
1134a,Vatan Sanayi (e),,37.867472,32.563301,,
1134d,Vatan Sanayi (e),,37.867172,32.563301,,
1135a,Yaylapınar Kaş Cami,,37.816703,32.498743,,
1135d,Yaylapınar Kaş Cami,,37.816739,32.498652,,
1136a,Sarnıç Cami,,37.876825,32.51205,,
1136d,Sarnıç Cami,,37.8767417,32.5121417,,
1137a,Şehit Muharrem Öksüz,,37.877625,32.5138083,,
1137d,Şehit Muharrem Öksüz,,37.877575,32.5138083,,
1138a,Şehit Azam Güdendede,,37.879225,32.5163,,
1138d,Şehit Azam Güdendede,,37.879175,32.5163,,
1139a,Şehit İbrahim Maral,,37.8811917,32.519525,,
1139d,Şehit İbrahim Maral,,37.881075,32.5195,,
113a,Fethiye,,37.8563083,32.4434417,,
113d,Fethiye,,37.8563834,32.4434333,,
1140a,Göreme,,37.882716,32.522073,,
1140d,Göreme,,37.8826583,32.521875,,
1141a,Bülbül,,37.8846417,32.5249,,
1141d,Bülbül,,37.8845217,32.5249,,
1142a,Garip Nasrullah Cami,,37.8861417,32.527825,,
1142d,Garip Nasrullah Cami,,37.8859917,32.527875,,
1143a,Halil Etem,,37.887483,32.530855,,
1143d,Halil Etem,,37.88732,32.530925,,
1144a,Hz. Yusuf Cami,,37.888755,32.533757,,
1144d,Hz. Yusuf Cami,,37.888872,32.53358,,
1145a,Göztepe Cami,,37.935204,32.436216,,
1145d,Göztepe Cami,,37.935105,32.436264,,
1146a,Çengilti Çıkışı,,38.001051,32.772334,,
1146d,Çengilti Çıkışı,,38.000816,32.772442,,
1147a,Atardamar,,37.890129,32.540522,,
1147d,Atardamar,,37.890529,32.541102,,
1148a,Hilal,,37.8865917,32.5423083,,
1148d,Hilal,,37.88662,32.54265,,
1149a,Yunus Emre,,37.851955,32.53624,,
1149d,Yunus Emre,,37.851915,32.536316,,
114a,Çağlayan,,37.854275,32.4393083,,
114d,Çağlayan,,37.8543417,32.4392083,,
1150a,Müzakere,,37.848372,32.533295,,
1150d,Müzakere,,37.848314,32.533365,,
1151a,Akçakaya,,37.846305,32.531321,,
1151d,Akçakaya,,37.846273,32.531386,,
1152a,Manolya,,38.008438,32.487312,,
1152d,Manolya,,38.008519,32.487076,,
1153a,Palmiye,,38.009796,32.490573,,
1153d,Palmiye,,38.009888,32.490605,,
1154a,Kırlangıç,,38.006783,32.492711,,
1154d,Kırlangıç,,38.006672,32.492816,,
1155a,Topkaya,,37.873735,32.536628,,
1155d,Topkaya,,37.8736967,32.5364345,,
1156a,Karma İlkokulu,,37.877951,32.495488,,
1157a,Cizreli,,37.879227,32.504231,,
1157d,Cizreli,,37.879191,32.504285,,
1158a,Lilyum,,38.006402,32.485802,,
1158d,Lilyum,,38.006545,32.485558,,
1159a,Kamelya,,38.006727,32.482773,,
1159d,Kamelya,,38.006619,32.482789,,
115a,Kehribar,,37.8534333,32.4377667,,
115d,Kehribar,,37.8535334,32.4376666,,
1160a,Fulya,,38.009636,32.481497,,
1160d,Fulya,,38.009707,32.48119,,
1161a,Ahmet Şuayip,,37.772936,32.408412,,
1161d,Ahmet Şuayip,,37.77288,32.408519,,
1162a,Estergon,,37.775503,32.410729,,
1162d,Estergon,,37.775524,32.410579,,
1163a,Motif,,37.778605,32.411078,,
1163d,Motif,,37.778529,32.410928,,
1164a,Mimoza,,38.006094,32.490283,,
1164d,Mimoza,,38.005957,32.490439,,
1165a,Mihman,,37.862431,32.643885,,
1166a,İpek,,37.891116,32.525002,,
1166d,İpek,,37.891114,32.524847,,
1167a,Horasanlı İlkokulu,,37.893142,32.526825,,
1167d,Horasanlı İlkokulu,,37.893263,32.526681,,
1168a,Tuğra,,37.984626,32.900764,,
1168d,Tuğra,,37.984563,32.900683,,
1169a,Hakkaniyet,,37.8973583,32.5321166,,
1169d,Hakkaniyet,,37.897288,32.531896,,
116a,Avgın,,37.8513,32.43475,,
116d,Avgın,,37.8515417,32.4351083,,
1170a,Keçeciler Son Durak Cami,,37.8989417,32.53515,,
1170d,Keçeciler Son Durak Cami,,37.898896,32.535023,,
1171a,Kısmet,,37.897725,32.5369083,,
1171d,Kısmet,,37.89773,32.53728,,
1172a,Çevik Kuvvet,,37.894015,32.538591,,
1172d,Çevik Kuvvet,,37.894369,32.539154,,
1173a,Başak,,37.890275,32.5337417,,
1173d,Başak,,37.890325,32.5334583,,
1174a,Açelya,,37.974068,32.507852,,
1174d,Açelya,,37.974239,32.508035,,
1175a,Anemon,,37.974685,32.503899,,
1175d,Anemon,,37.974793,32.503931,,
1176a,Feslegen,,37.974864,32.496957,,
1176d,Feslegen,,37.975012,32.496925,,
1177a,Tüzel,,37.8796584,32.537625,,
1177d,Tüzel,,37.879475,32.5374917,,
1178a,Döküm,,37.896391,32.528355,,
1178d,Döküm,,37.896247,32.528601,,
1179a,Çakırdoğan,,37.888625,32.5213333,,
1179d,Çakırdoğan,,37.8884583,32.5212417,,
117a,Çandır,,37.8499083,32.4309083,,
117d,Çandır,,37.8499416,32.4308417,,
1180a,Yediler Laleli Cami,,37.8874083,32.5195166,,
1180d,Yediler Laleli Cami,,37.8871583,32.5191917,,
1181a,Yediler Işıklar Cami,,37.885286,32.515749,,
1181d,Yediler Işıklar Cami,,37.885263,32.515878,,
1182a,Sarıkışla,,37.883647,32.512959,,
1182d,Sarıkışla,,37.883625,32.5131,,
1183a,Bağönü,,37.881875,32.5098583,,
1183d,Bağönü,,37.881725,32.50975,,
1184a,Keçeciler Cami,,37.8803584,32.506925,,
1184d,Keçeciler Cami,,37.8802083,32.5068083,,
1185a,Sarık,,37.885675,32.4999583,,
1185d,Sarık,,37.885675,32.4999983,,
1186a,Flora,,37.948994,32.519724,,
1186d,Flora,,37.948916,32.519778,,
1187a,Karacihan,,37.886933,32.504248,,
1187d,Karacihan,,37.88696,32.504145,,
1188a,Şehit Sadık Ortaokulu,,37.888846,32.506458,,
1188d,Şehit Sadık Ortaokulu,,37.888776,32.506522,,
1189a,Araplar Mezarlığı,,37.890235,32.508957,,
1189d,Araplar Mezarlığı,,37.890089,32.508963,,
118a,Karaciğan Cami,,37.859824,32.471251,,
118d,Karaciğan Cami,,37.859872,32.471074,,
1190a,Suyolu,,37.891778,32.511114,,
1190d,Suyolu,,37.891844,32.511023,,
1191a,Burhaniye,,37.893416,32.513533,,
1191d,Burhaniye,,37.893482,32.513453,,
1192a,Selimiye,,37.894956,32.515293,,
1192d,Selimiye,,37.895102,32.515132,,
1193a,Meftunlu,,37.897496,32.517375,,
1193d,Meftunlu,,37.897625,32.517255,,
1194a,Cevher Dudayev,,37.899957,32.51908,,
1194d,Cevher Dudayev,,37.899977,32.518774,,
1195a,Hasşehir,,37.9021583,32.5206833,,
1195d,Hasşehir,,37.902575,32.5208083,,
1196a,10424. Sk,,37.9045417,32.5227083,,
1196d,10424. Sk,,37.904725,32.5226583,,
1197a,Muhabir,,37.903625,32.524625,,
1197d,Muhabir,,37.9036166,32.52485,,
1198a,Mesnevi,,37.9007583,32.5260417,,
1198d,Mesnevi,,37.9007417,32.5263084,,
1199a,Aşkar Höyüğü Parkı,,37.8983667,32.5269916,,
1199d,Aşkar Höyüğü Parkı,,37.89835,32.5272333,,
119a,Merhale,,37.812773,32.436549,,
11a,Millet Bahçesi,,37.867033,32.4827,,
11d,Millet Bahçesi,,37.867175,32.48251,,
1200a,Karkent Bafra,,37.897075,32.52625,,
1201d,Üçdere,,37.89537,32.523409,,
1202d,Kazdağı,,37.893751,32.521258,,
1203a,İsmail Hakkı,,37.891003,32.517278,,
1204a,Aydınlar,,37.88475196,32.50808667,,
1205a,Akçil,,37.888717,32.514032,,
1206a,Kavakaltı Cami,,37.886522,32.511076,,
1207a,Bahtıgüzel,,37.88178759602254,32.503700349479914,,
1207d,Bahtıgüzel,,37.881734685432,32.50357696786523,,
1208a,Vahdet,,37.88366208350107,32.50299761071801,,
1208d,Vahdet,,37.88362745499796,32.502917647361755,,
1209d,Ereğli Yolu,,37.837948,32.783907,,
120a,Ermişli,,37.859488,32.466478,,
120d,Ermişli,,37.859365,32.46628,,
1210a,Hacı Hasanbaşı 2,,37.8800814999589,32.50336239114404,,
1210d,Hacı Hasanbaşı 2,,37.88011349091098,32.50328192487359,,
1211a,Araplar Cami,,37.8836667,32.5056917,,
1211d,Araplar Cami,,37.8837417,32.505675,,
1212a,Kürden,,37.8860834,32.5072,,
1213a,Araplar Ak Cami,,37.8897917,32.5073083,,
1214a,Hacıbacak Cami,,37.8913584,32.5073167,,
1215a,Cengiz Topel İlkokulu,,37.8936167,32.50745,,
1216a,Seyit Kutup,,37.907946,32.526151,,
1216d,Seyit Kutup,,37.907999,32.525968,,
1217a,Babı Ali,,37.906375,32.5293083,,
1217d,Babı Ali,,37.9066,32.52964,,
1218a,Mevlana Ptt,,37.903675,32.5324417,,
1218d,Mevlana Ptt,,37.90379,32.53273,,
1219a,Bestami,,37.902375,32.5362583,,
121a,İstikrar,,37.815146,32.438635,,
1220a,Ragıp,,37.90465,32.5385833,,
1221a,Ravza,,37.906679,32.539523,,
1222a,Ehlibeyt,,37.90745,32.5345333,,
1223a,Neü Mühendislik Fak.,,37.86347,32.412108,,
1223d,Neü Mühendislik Fak.,,37.863417,32.412045,,
1224a,Neü Mühendislik Fak. 2,,37.86635,32.411292,,
1224d,Neü Mühendislik Fak. 2,,37.86642,32.411233,,
1225a,Hurdacılar Sanayi,,37.9129417,32.532775,,
1225d,Hurdacılar Sanayi,,37.9130917,32.5326584,,
1226d,İkbal Cami,,37.9109083,32.5301417,,
1227a,10579. Sk,,37.9162434,32.535675,,
1227d,10579. Sk,,37.9162634,32.535575,,
1228a,Büsan Girişi,,37.9170917,32.5373417,,
1229a,10643. Sk,,37.915034,32.541228,,
122a,Şahap,,37.817151,32.441833,,
1230a,10647. Sk,,37.9124917,32.5457583,,
1231a,10652. Sk,,37.911425,32.5502083,,
1231d,10652. Sk,,37.911425,32.5498083,,
1232a,10648. Sk,,37.9136834,32.547925,,
1232d,10648. Sk,,37.9136834,32.547725,,
1233a,Büsan Cami,,37.915375,32.5447833,,
1234a,Kosgeb,,37.917075,32.5417333,,
1235a,10642. Sk,,37.919075,32.5380417,,
1236a,Medcezir,,37.921275,32.533975,,
1237a,Şatır Yolu 1,,37.79395,32.7746416,,
1238a,Yazıcıoğlu,,37.8761083,32.531675,,
1238d,Yazıcıoğlu,,37.8762583,32.5316457,,
1239d,Vuslat,,37.92745,32.5326833,,
123a,Zümrüt Cami,,37.8519917,32.448075,,
123d,Zümrüt Cami,,37.852075,32.4481083,,
1240d,10683. Sk,,37.9266333,32.5339,,
1241d,10687. Sk,,37.9275166,32.5345917,,
1242a,Kışlaönü 1,,37.868033,32.513501,,
1242d,Kışlaönü 1,,37.868086,32.513297,,
1244a,Dikilitaş,,37.95484,32.47237,,
1244d,Dikilitaş,,37.95459,32.47237,,
1245a,Baykara,,37.95285,32.4745,,
1245d,Baykara,,37.95265,32.4747167,,
1246a,Karatay Hükümet Konağı,,37.863891,32.543327,,
1246d,Karatay Hükümet Konağı,,37.863834,32.543129,,
1247a,Tatköy Baraj Ayrımı,,37.937523,32.396734,,
1247d,Tatköy Baraj Ayrımı,,37.937589,32.396755,,
1248a,Medicana Hastanesi,,37.8935083,32.49809,,
1249d,Zencirli 3,,38.00377,32.835478,,
124a,Yeşildal,,37.848214,32.446109,,
124d,Yeşildal,,37.848231,32.446021,,
1250d,Zencirli 5,,38.008335,32.834667,,
1251a,Konlas,,38.027335,32.645659,,
1251d,Konlas,,38.027375,32.645772,,
1252a,3. Sk,,37.96408,32.61929,,
1253a,Evrenköy 2,,37.96733,32.61393,,
1253d,Evrenköy 2,,37.967302,32.613812,,
1254a,Arıkan,,37.849659,32.51017,,
1254d,Arıkan,,37.849775,32.50991,,
1255a,Boztepe,,37.851625,32.51281,,
1255d,Boztepe,,37.8516084,32.51242,,
1256a,Mahiler,,37.8543583,32.51673,,
1256d,Mahiler,,37.854425,32.51638,,
1257a,Demircan,,37.8565417,32.52026,,
1257d,Demircan,,37.8566083,32.51986,,
1258a,Asmalı Konak,,37.859418,32.523774,,
1258d,Asmalı Konak,,37.859649,32.523586,,
1259a,Kurudere,,37.864555,32.524883,,
1259d,Kurudere,,37.864602,32.525195,,
125a,Gürnihal,,37.8456917,32.4443917,,
1261a,Astar,,37.86861,32.525024,,
1261d,Astar,,37.868531,32.525292,,
1262a,Azimet,,37.87175,32.52741,,
1262d,Azimet,,37.871925,32.52716,,
1263a,Karfet Fetih Cami,,37.8764,32.5277,,
1263d,Karfet Fetih Cami,,37.8763,32.5274,,
1264a,Karatay Kent,,37.881468,32.527121,,
1264d,Karatay Kent,,37.881609,32.527427,,
1265a,Fındık,,37.8839833,32.5273,,
1265d,Fındık,,37.8838917,32.52694,,
1266a,Şalvarcı,,37.8877583,32.52397,,
1266d,Şalvarcı,,37.887525,32.52381,,
1267a,Oğuzhan,,37.8900083,32.52059,,
1267d,Oğuzhan,,37.889875,32.52032,,
1268a,Bayatlı,,37.8920584,32.51753,,
1268d,Bayatlı,,37.8919917,32.51714,,
1269a,Mercidabık,,37.893625,32.51515,,
1269d,Mercidabık,,37.8933917,32.51504,,
126a,Cemal Bardakçı İlkokulu,,37.847205,32.442719,,
126d,Cemal Bardakçı İlkokulu,,37.847381,32.442692,,
1270a,Ala,,37.8944833,32.51205,,
1270d,Ala,,37.89425,32.51215,,
1271a,Canöz,,37.89485,32.50805,,
1271d,Canöz,,37.8946667,32.50815,,
1272a,İsmet Paşa İlkokulu,,37.8761584,32.5001584,,
1273a,Nesrin Ayşegül İlkokulu,,37.881675,32.4956917,,
1273d,Nesrin Ayşegül İlkokulu,,37.8812166,32.4957334,,
1274a,Musalla Şehitlik,,37.8842883,32.4973017,,
1274d,Musalla Şehitlik,,37.8843083,32.49713,,
1275a,Emniyet Müdürlüğü,,37.88712,32.499468,,
1275d,Emniyet Müdürlüğü,,37.887109,32.499114,,
1276a,Toklu,,37.889375,32.501125,,
1276d,Toklu,,37.8895167,32.5009083,,
1277a,Kocaense,,37.8918833,32.502925,,
1277d,Kocaense,,37.8918417,32.502625,,
1278a,Hava Lojmanları,,37.8932583,32.5040083,,
1278d,Hava Lojmanları,,37.893225,32.5036584,,
1279a,Gündüz,,37.8977834,32.5073083,,
1279d,Gündüz,,37.897725,32.5069083,,
127a,Saka Cami,,37.8466917,32.439575,,
127d,Saka Cami,,37.846775,32.439525,,
1280a,Abdülbasri,,37.9008083,32.509525,,
1280d,Abdülbasri,,37.9010417,32.509325,,
1281a,Hekim Gaznevi,,37.9031583,32.511225,,
1281d,Hekim Gaznevi,,37.903275,32.510975,,
1282a,Karayolları Cami,,37.9066666,32.513825,,
1282d,Karayolları Cami,,37.9067917,32.5135583,,
1283a,Karayolları Lojmanları,,37.9099,32.5157166,,
1283d,Karayolları Lojmanları,,37.9098333,32.5153667,,
1284a,Laleciler,,37.916614,32.519809,,
1284d,Laleciler,,37.916694,32.519444,,
1285a,Altınkaya,,37.8832417,32.5372833,,
1285d,Altınkaya,,37.8833667,32.5371,,
1286a,Çevreli,,37.919502,32.522116,,
1286d,Çevreli,,37.919802,32.521848,,
1287a,Büsan,,37.923309,32.525978,,
1287d,Büsan,,37.923381,32.525431,,
1288a,Aykent,,37.929474,32.532019,,
1288d,Aykent,,37.928562,32.530468,,
1289a,Toprak Mahsulleri Ofisi,,37.931659,32.534154,,
1289d,Toprak Mahsulleri Ofisi,,37.931919,32.533816,,
128a,Tahir Büyükkörükcü İhl,,37.8446667,32.437275,,
128d,Tahir Büyükkörükcü İhl,,37.844725,32.4372083,,
1290a,Modesa,,37.9347916,32.5370583,,
1290d,Modesa,,37.9354917,32.5373083,,
1291a,Türk Yıldızları Parkı 1,,37.9521583,32.555425,,
1291d,Türk Yıldızları Parkı 1,,37.952575,32.5552916,,
1292a,Konsan,,37.943625,32.5462167,,
1292d,Konsan,,37.9438083,32.5459167,,
1293a,Türk Yıldızları Parkı 2,,37.9550417,32.558575,,
1293d,Türk Yıldızları Parkı 2,,37.9554417,32.5584917,,
1294a,Aksaray Yolu Köprüsü,,37.946825,32.5497417,,
1294d,Aksaray Yolu Köprüsü,,37.9466917,32.5489917,,
1295a,Aksaray Kavşağı,,37.94995,32.5567833,,
1295d,Aksaray Kavşağı,,37.950175,32.5567,,
1296a,Türk Yıldızları Parkı 3,,37.9579583,32.561725,,
1296d,Türk Yıldızları Parkı 3,,37.958325,32.5616083,,
1297a,Tüyap,,37.9505084,32.56065,,
1297d,Tüyap,,37.9507417,32.5603083,,
1298a,Aslım,,37.9528667,32.5753666,,
1298d,Aslım,,37.95325,32.5753,,
1299a,Tümosan,,37.9560833,32.5964167,,
1299d,Tümosan,,37.9564167,32.5965833,,
129a,Kazan Bendi Cami,,37.8434917,32.4348333,,
129d,Kazan Bendi Cami,,37.8435583,32.434875,,
12a,Muhacir Pazarı,,37.866475,32.4882333,,
12d,Muhacir Pazarı,,37.866575,32.4881333,,
1300a,Lila,,38.008532,32.493519,,
1300d,Lila,,38.008501,32.49361,,
1301a,421. Sk,,37.9584667,32.6119,,
1301d,421. Sk,,37.9586667,32.6117333,,
1302a,2. Organize Aksaray Girişi,,37.960771,32.617115,,
1302d,2. Organize Aksaray Girişi,,37.960752,32.617303,,
1303a,2. Organize 2,,37.968096,32.610585,,
1303d,2. Organize 2,,37.968292,32.610585,,
1304a,2. Organize 3,,37.967535,32.608357,,
1304d,2. Organize 3,,37.967435,32.608357,,
1305a,2. Organize 4,,37.9702,32.6080083,,
1305d,2. Organize 4,,37.9701667,32.6079083,,
1306a,Mft Sanayi,,37.852043,32.675657,,
1306d,Mft Sanayi,,37.852279,32.67563,,
1307a,2. Organize 6,,37.973969,32.605565,,
1307d,2. Organize 6,,37.973972,32.605651,,
1308a,2. Organize 7,,37.9782,32.6030333,,
1308d,2. Organize 7,,37.9781834,32.6029166,,
1309d,2. Organize 8,,37.980169,32.604487,,
130a,Sert,,37.843975,32.4328833,,
130d,Sert,,37.8440083,32.4328917,,
1310d,2. Organize 9,,37.981767,32.598441,,
1312a,9. Sk,,37.9895,32.6055417,,
1312d,9. Sk,,37.9893,32.6055917,,
1313a,Vali İhsan Dede,,37.9913583,32.6071916,,
1313d,Vali İhsan Dede,,37.9911083,32.6072417,,
1314a,Sanayi 13. Sk,,37.9904917,32.6098917,,
1314d,Sanayi 13. Sk,,37.990475,32.6097417,,
1315a,2. Organize Çıkışı,,37.987132,32.600405,,
1315d,2. Organize Çıkışı,,37.987276,32.600641,,
1316a,Organize 1,,37.9672833,32.6260583,,
1316d,Organize 1,,37.9672166,32.6259417,,
1317a,Sanayi 6. Sk,,37.970475,32.6244916,,
1317d,Sanayi 6. Sk,,37.9706583,32.624275,,
1318a,8. Sk,,37.9744417,32.625725,,
1318d,8. Sk,,37.97455,32.625575,,
1319a,Ziyaeddin,,37.9777583,32.6288917,,
1319d,Ziyaeddin,,37.9779583,32.6288583,,
131a,İlkokul,,37.8422083,32.430725,,
131d,İlkokul,,37.8423167,32.4306167,,
1320a,Çelimli,,37.9794417,32.6290834,,
1320d,Çelimli,,37.9795417,32.6287667,,
1321a,19. Sk,,37.981525,32.6254667,,
1321d,19. Sk,,37.9814917,32.6253417,,
1322a,13. Sk 2,,37.983525,32.6219417,,
1322d,13. Sk 2,,37.9835583,32.62175,,
1323a,13. Sk,,37.985475,32.6186,,
1323d,13. Sk,,37.9854917,32.6183917,,
1324a,3. Organize,,37.988075,32.614125,,
1324d,3. Organize,,37.988075,32.614075,,
1325a,Türk Yıldızları Parkı 4,,37.9611,32.5651,,
1325d,Türk Yıldızları Parkı 4,,37.9615417,32.565025,,
1326a,Kayacık Yağmur,,37.994997,32.5999,,
1326d,Kayacık Yağmur,,37.99513,32.5996,,
1327d,Demirel,,37.940913,32.423593,,
1328a,Türk Yıldızları Parkı 5,,37.967275,32.5716417,,
1328d,Türk Yıldızları Parkı 5,,37.9676417,32.5715834,,
1329a,Lalehan Cd,,37.96475,32.615375,,
1329d,Lalehan Cd,,37.964599,32.61549,,
132a,Durunday,,37.8401417,32.4315583,,
132d,Durunday,,37.8402167,32.4314917,,
1330a,Türk Yıldızları Parkı 6,,37.9705083,32.575125,,
1330d,Türk Yıldızları Parkı 6,,37.970875,32.5750583,,
1331a,Pınarbaşı Girişi,,38.021475,32.6278917,,
1331d,Pınarbaşı Girişi,,38.021475,32.6278667,,
1332a,16722. Sk,,38.0323583,32.6158333,,
1332d,16722. Sk,,38.0323083,32.6158166,,
1333a,Molla Gürani,,38.045725,32.603875,,
1333d,Molla Gürani,,38.0458583,32.6037417,,
1334a,16742. Sk,,38.0472917,32.6029083,,
1334d,16742. Sk,,38.0473583,32.602825,,
1335a,Hoca Nasreddin,,38.050525,32.6009583,,
1335d,Hoca Nasreddin,,38.050625,32.6008417,,
1336a,16825. Sk,,38.0540917,32.5988084,,
1336d,16825. Sk,,38.0541583,32.598675,,
1337a,16827. Sk,,38.056325,32.597425,,
1337d,16827. Sk,,38.056425,32.597325,,
1338a,16829. Sk,,38.0574583,32.5951583,,
1338d,16829. Sk,,38.0574417,32.5950667,,
1339a,Pınarbaşı Cami,,38.0592334,32.5941,,
1339d,Pınarbaşı Cami,,38.05935,32.5940166,,
133a,Balova,,37.8374,32.43145,,
133d,Balova,,37.8375333,32.4314417,,
1340a,Pınarbaşı Son,,38.0633833,32.59475,,
1340d,Pınarbaşı Son,,38.06345,32.5947167,,
1341a,Sultan Mehmet,,38.0681,32.5959833,,
1341d,Sultan Mehmet,,38.0681334,32.5959667,,
1342a,Sarıcalar Mahalle Girişi,,38.0858083,32.6082417,,
1342d,Sarıcalar Mahalle Girişi,,38.085825,32.608225,,
1343a,18351. Sk,,38.0871917,32.6102917,,
1343d,18351. Sk,,38.0872667,32.6102667,,
1344a,25756. Sk,,38.1033417,32.555375,,
1344d,25756. Sk,,38.1033083,32.5553833,,
1345a,Çaltı,,38.10275,32.5526833,,
1345d,Çaltı,,38.1026083,32.55225,,
1346a,Solak,,38.0409667,32.6055,,
1346d,Solak,,38.0409167,32.6055417,,
1347a,16706. Sk,,38.0378583,32.603625,,
1347d,16706. Sk,,38.0378417,32.6036583,,
1348a,Safa Cami,,38.036475,32.600275,,
1348d,Safa Cami,,38.036375,32.6002417,,
134a,Pir Aliler,,37.8354,32.4313333,,
134d,Pir Aliler,,37.8354333,32.4313833,,
1350a,Bilim Merkezi,,37.986875,32.5919,,
1350d,Bilim Merkezi,,37.9866083,32.5909917,,
1351a,Birlik Parkı,,37.9769917,32.5821083,,
1351d,Birlik Parkı,,37.9773583,32.5820417,,
1352a,Eski Ankara Cd,,37.9789417,32.5840667,,
1352d,Eski Ankara Cd,,37.9793083,32.584025,,
1353a,Hava Alanı,,37.9831417,32.5881583,,
1353d,Hava Alanı,,37.9833583,32.587975,,
1354a,Türk Yıldızları Parkı 7,,37.9737083,32.5786417,,
1354d,Türk Yıldızları Parkı 7,,37.973925,32.5783583,,
1356a,Çaltı Hz Osman Cami,,38.1,32.5467834,,
1356d,Çaltı Hz Osman Cami,,38.0999417,32.546825,,
1358a,Yaylapınar,,37.822045,32.499526,,
1358d,Yaylapınar,,37.821984,32.49951,,
1359a,Dolum Tesisi,,38.0221417,32.6534583,,
1359d,Dolum Tesisi,,38.0220917,32.6536334,,
135a,Üçyol Cami,,37.8343084,32.4278083,,
135d,Üçyol Cami,,37.834275,32.4278583,,
1360a,16905. Sk,,38.0239917,32.67455,,
1360d,16905. Sk,,38.0240166,32.6746,,
1361a,Tömek Cami,,38.0240334,32.6794,,
1362a,16913. Sk,,38.0248584,32.6794333,,
1363a,Ortakonak 1,,37.9675667,32.6955583,,
1363d,Ortakonak 1,,37.9675917,32.695525,,
1364a,Ortakonak 3,,37.9646417,32.6965917,,
1364d,Ortakonak 3,,37.9646667,32.6966,,
1365a,Ortakonak 2,,37.967275,32.689775,,
1365d,Ortakonak 2,,37.9674917,32.6896083,,
1366a,Çengilti Cami,,38.0046583,32.7722333,,
1366d,Çengilti Cami,,38.004625,32.7721917,,
1367a,Çengilti İlkokulu,,38.0069,32.7719666,,
1367d,Çengilti İlkokulu,,38.0069667,32.7719083,,
1368a,Çengilti 1,,38.0051583,32.7741583,,
1368d,Çengilti 1,,38.0052167,32.7741834,,
1369a,Koca Yusuf 1,,38.0225833,32.6635,,
1369d,Koca Yusuf 1,,38.0227,32.66385,,
136a,Deveci,,37.8365666,32.4259,,
136d,Deveci,,37.8365083,32.4259583,,
1370a,Acıdort Köyü,,37.9698166,32.8005667,,
1371a,Acıdort Girişi,,37.970607,32.796828,,
1371d,Acıdort Girişi,,37.970643,32.796925,,
1372a,Zencirli 2,,38.004175,32.8317417,,
1373a,Zencirli Cami,,38.0034084,32.83405,,
1374a,Zencirli 4,,38.0032,32.8388,,
1374d,Zencirli 4,,38.003275,32.8386417,,
1375a,Divanlar Köyü Yol İçi,,37.9811583,32.9033417,,
1375d,Divanlar Köyü Yol İçi,,37.98125,32.9034,,
1376a,Divanlar Cami,,37.9813667,32.90685,,
1377a,Divanlar İlkokulu,,37.98025,32.9046167,,
1378a,Abdülaziz,,37.981755,32.489109,,
1378d,Abdülaziz,,37.982121,32.489209,,
1379a,Dr. Ali Eğribaş,,37.8949583,32.50162,,
1379d,Dr. Ali Eğribaş,,37.894925,32.50215,,
137a,Fenersiz,,37.84855,32.4492833,,
137d,Fenersiz,,37.8485667,32.44935,,
1380a,Şeyh Edebalı,,37.666329,32.588778,,
1380d,Şeyh Edebalı,,37.665997,32.588995,,
1381a,Tokat,,37.812473,32.495243,,
1381d,Tokat,,37.812447,32.49538,,
1382a,Yürekli,,37.9043666,32.5026666,,
1383a,Gölbaşı 1,,37.9069,32.5032833,,
1384d,Sarıer,,37.906554,32.487226,,
1385d,Temsili,,37.908719,32.485659,,
1386a,5. Murad,,37.984872,32.486653,,
1386d,5. Murad,,37.984985,32.486889,,
1387d,Tahran,,37.910615,32.487387,,
1388a,Ardıçlı Toki 1,,38.001194,32.492706,,
1388d,Ardıçlı Toki 1,,38.00126,32.492725,,
1389a,Ardıçlı Toki 2,,38.00166,32.490468,,
1389d,Ardıçlı Toki 2,,38.001816,32.490668,,
138a,Dutluca,,37.8486917,32.4520583,,
138d,Dutluca,,37.8486833,32.4521667,,
1391a,Ardıçlı Toki 3,,38.003751,32.487703,,
1391d,Ardıçlı Toki 3,,38.003677,32.487607,,
1392a,Yahya,,37.9103333,32.50425,,
1393a,Ardıçlı Toki Giriş,,37.998268,32.491412,,
1393d,Ardıçlı Toki Giriş,,37.998125,32.491431,,
1394a,Taşer,,37.9700666,32.53435,,
1395a,Eğrilmez,,37.9745,32.5219417,,
1395d,Eğrilmez,,37.974453,32.521741,,
1396a,Çırağan,,37.8886,32.489975,,
1396d,Çırağan,,37.8889255,32.4903583,,
1397a,Yanal,,37.8921583,32.4927917,,
1397d,Yanal,,37.8921583,32.4930417,,
1398d,Konya Cezaevi,,37.867265,32.546454,,
1399a,Selçuklu Yht Garı,,37.8969,32.499387,,
1399d,Selçuklu Yht Garı,,37.896737,32.499516,,
139a,Akçalılar,,37.8482083,32.4549083,,
139d,Akçalılar,,37.848225,32.45495,,
13a,Bodur,,37.86587,32.491722,,
13d,Bodur,,37.866054,32.491807,,
1400a,Manifaturacılar,,37.899175,32.5029833,,
1400d,Manifaturacılar,,37.899275,32.502775,,
1401a,Adapte,,37.9065083,32.4946417,,
1401d,Adapte,,37.9064083,32.494775,,
1402a,Radar,,37.908275,32.4948333,,
1402d,Radar,,37.908375,32.494875,,
1403a,Mimar Sinan Cami,,37.9095416,32.4927583,,
1403d,Mimar Sinan Cami,,37.9095667,32.49285,,
1404a,Mehmet Zahid Kotku İhl,,37.912075,32.494375,,
1404d,Mehmet Zahid Kotku İhl,,37.9121416,32.494475,,
1405a,Anı,,37.9142584,32.4952834,,
1405d,Anı,,37.9144583,32.49525,,
1406a,Tarakçı,,37.9174167,32.4926366,,
1406d,Tarakçı,,37.9174167,32.4925166,,
1407a,Kabiliyet,,37.9200333,32.4926483,,
1407d,Kabiliyet,,37.9200333,32.4925083,,
1408a,Masumhane,,37.9218,32.4939666,,
1408d,Masumhane,,37.92185,32.4939666,,
1409a,Sakarya,,37.92178,32.4969334,,
1409d,Sakarya,,37.92185,32.4969334,,
140a,Dündarlı,,37.851375,32.458925,,
1410a,Söğütdibi,,37.9230267,32.501599,,
1410d,Söğütdibi,,37.9230367,32.50156,,
1411a,Özsahra,,37.9245667,32.5020583,,
1411d,Özsahra,,37.9246167,32.5021417,,
1412a,Besim,,37.92645,32.5002333,,
1412d,Besim,,37.9268,32.5003667,,
1413a,Malazgirt Cami,,37.928395,32.4991216,,
1413d,Malazgirt Cami,,37.928425,32.4991916,,
1414a,Mehtap,,37.9301917,32.4966417,,
1414d,Mehtap,,37.9302417,32.4967083,,
1415a,Ceylangözü,,37.9313667,32.49295,,
1415d,Ceylangözü,,37.931325,32.49315,,
1416a,Hicret Cami,,37.9326,32.49525,,
1416d,Hicret Cami,,37.9325,32.49525,,
1417a,Mehmet Akif Lisesi,,37.9326,32.4972666,,
1417d,Mehmet Akif Lisesi,,37.932525,32.4973583,,
1418a,Cazibe,,37.9339167,32.4996333,,
1418d,Cazibe,,37.93385,32.4997834,,
1419a,Otogar,,37.94855,32.51075,,
1419d,Otogar,,37.948768,32.510723,,
141a,Dayılı,,37.852325,32.456075,,
141d,Dayılı,,37.8523084,32.456125,,
1420a,Yaşayan,,37.9477084,32.4856917,,
1420d,Yaşayan,,37.9474917,32.4856833,,
1421a,Kaletaş,,37.9477417,32.4823416,,
1421d,Kaletaş,,37.947675,32.4821083,,
1422a,Huzur Bahçesi 1,,37.9507417,32.4782417,,
1422d,Huzur Bahçesi 1,,37.9509,32.4779667,,
1423a,Huzur Bahçesi 2,,37.953676,32.478085,,
1423d,Huzur Bahçesi 2,,37.953585,32.477881,,
1424a,Aruz,,37.94235,32.49895,,
1424d,Aruz,,37.9423334,32.49905,,
1425d,Ayanoğlu,,37.937025,32.5044917,,
1426d,Eyüp Sultan Cami,,37.9370083,32.508125,,
1427a,Fulda,,37.9510666,32.5231167,,
1427d,Fulda,,37.951012,32.522903,,
1428a,Bizim,,37.94575,32.4989667,,
1428d,Bizim,,37.9457,32.4991417,,
1429a,Türkü,,37.944145,32.4999017,,
1429d,Türkü,,37.9440783,32.499875,,
142a,Müdafa,,37.8539166,32.4533667,,
142d,Müdafa,,37.8539834,32.45335,,
1430a,Dikmetaş,,37.9428,32.5034834,,
1430d,Dikmetaş,,37.9428,32.5034,,
1431a,Cumhuriyet Lisesi,,37.9401333,32.5028,,
1431d,Cumhuriyet Lisesi,,37.940134,32.5027008,,
1432a,Binkonut Pazar,,37.937824,32.503523,,
1432d,Binkonut Pazar,,37.937805,32.503448,,
1433a,Diyanet Yurdu,,37.9143833,32.49166,,
1433d,Diyanet Yurdu,,37.9143417,32.49171,,
1434a,Sultaniye,,37.9147167,32.4882667,,
1434d,Sultaniye,,37.9147583,32.4882583,,
1435a,Gültepe,,37.9156,32.4856167,,
1435d,Gültepe,,37.9156917,32.4855917,,
1436a,Tercüman,,37.917375,32.48703,,
1436d,Tercüman,,37.9174583,32.4868,,
1437a,Mesnet,,37.9194167,32.4883334,,
1437d,Mesnet,,37.9193167,32.488325,,
1438a,Çam Sakızı,,37.919725,32.4853,,
1438d,Çam Sakızı,,37.9197583,32.485125,,
1439a,Gülfidan,,37.9181916,32.4821917,,
1439d,Gülfidan,,37.918275,32.4821417,,
143a,Bulvar,,37.8411583,32.4529084,,
143d,Bulvar,,37.8413417,32.452975,,
1440a,Seçkinsaray,,37.9166417,32.4791583,,
1440d,Seçkinsaray,,37.9166917,32.4790083,,
1441a,Bağcı,,37.9183583,32.4779,,
1441d,Bağcı,,37.9182667,32.4780083,,
1442a,Gözcüler,,37.921475,32.4769083,,
1442d,Gözcüler,,37.9216,32.47695,,
1443a,Şeyhi,,37.924382,32.475784,,
1443d,Şeyhi,,37.924422,32.47586,,
1444a,İsmail Kaya,,37.9269583,32.4746917,,
1444d,İsmail Kaya,,37.926825,32.4748583,,
1445a,Burma,,37.931286,32.472394,,
1445d,Burma,,37.931307,32.472512,,
1446a,Gülyağı,,37.9337417,32.4707417,,
1446d,Gülyağı,,37.9337583,32.470825,,
1447a,Damarlar,,37.9369917,32.4686083,,
1447d,Damarlar,,37.936975,32.468725,,
1448a,Şirvan,,37.939825,32.4667583,,
1448d,Şirvan,,37.9398917,32.4668417,,
1449a,Ortakaya,,37.9426417,32.464875,,
1449d,Ortakaya,,37.9427583,32.4649083,,
144a,Kıvanç,,37.839875,32.4501167,,
144d,Kıvanç,,37.8399583,32.450075,,
1450a,Nurcan,,37.9456083,32.4627917,,
1450d,Nurcan,,37.9457417,32.4628417,,
1451a,Kelebekler Vadisi,,37.948636,32.461085,,
1451d,Kelebekler Vadisi,,37.94861,32.461209,,
1452a,Arıbalı,,37.9502333,32.4586083,,
1452d,Arıbalı,,37.9503167,32.4586334,,
1453a,İltifat,,37.9504,32.4556333,,
1453d,İltifat,,37.9504833,32.4555,,
1454a,Kto Mesleki Eğitim Merkezi,,37.945233,32.556284,,
1454d,Kto Mesleki Eğitim Merkezi,,37.945195,32.556216,,
1455a,Yıldırım,,37.9547167,32.453925,,
1455d,Yıldırım,,37.955058,32.454005,,
1456a,Veysel,,37.954175,32.45835,,
1456d,Veysel,,37.954025,32.458175,,
1457a,Bağlarbaşı Cami,,37.9551166,32.4607766,,
1457d,Bağlarbaşı Cami,,37.955072,32.460919,,
1458a,Arpaderesi,,37.887648,32.536064,,
1458d,Arpaderesi,,37.887686,32.535742,,
1459a,Baharistan,,37.957054,32.462544,,
1459d,Baharistan,,37.956976,32.462663,,
145a,Kavas,,37.8382584,32.4472583,,
145d,Kavas,,37.8382917,32.4471,,
1460a,Gülistan,,37.956899,32.465466,,
1460d,Gülistan,,37.956847,32.465483,,
1461a,Beylerbeyi,,37.957817,32.469508,,
1461d,Beylerbeyi,,37.957409,32.469325,,
1462a,Gülümser,,37.956046,32.474513,,
1462d,Gülümser,,37.956107,32.47477,,
1463a,Yıldızlı,,37.95162,32.47212,,
1463d,Yıldızlı,,37.95155,32.47213,,
1464a,Barana,,37.959,32.4734667,,
1464d,Barana,,37.9588333,32.47315,,
1465a,Ahmet Yesevi,,37.958975,32.4764916,,
1465d,Ahmet Yesevi,,37.9588167,32.4763167,,
1466a,Lokman Hekim Lisesi,,37.9589667,32.479375,,
1466d,Lokman Hekim Lisesi,,37.9588167,32.4793,,
1467a,Veysel Karani,,37.961037,32.519617,,
1467d,Veysel Karani,,37.960709,32.519308,,
1468a,Gülçayı,,37.96445,32.5196334,,
1468d,Gülçayı,,37.964488,32.519455,,
1469a,Ayazağa,,37.967154,32.521509,,
1469d,Ayazağa,,37.967284,32.521234,,
146a,Kumocağı,,37.8377333,32.4429666,,
146d,Kumocağı,,37.8378167,32.4430333,,
1470a,Özçiçek,,37.9720167,32.5224,,
1470d,Özçiçek,,37.971946,32.522197,,
1471a,Taraftar,,37.948111,32.490649,,
1471d,Taraftar,,37.9478631,32.490622,,
1472a,Ünal,,37.944833,32.492988,,
1472d,Ünal,,37.9447334,32.493175,,
1473a,Akkonak,,37.952525,32.492075,,
1473d,Akkonak,,37.952525,32.492575,,
1474a,Ayşe Kemal İnanç İhl,,37.9545334,32.5229166,,
1474d,Ayşe Kemal İnanç İhl,,37.954468,32.522699,,
1475a,Konya Diş Hastanesi,,37.9496417,32.493,,
1475d,Konya Diş Hastanesi,,37.9496417,32.4932,,
1476a,Dr. Halil Ürün,,37.948675,32.4964084,,
1476d,Dr. Halil Ürün,,37.9480666,32.4960083,,
1477a,Selçuklu Belediyesi,,37.9487833,32.5007667,,
1477d,Selçuklu Belediyesi,,37.9481,32.5007334,,
1478a,Beyaz Karanfil,,37.9486334,32.5053667,,
1478d,Beyaz Karanfil,,37.94825,32.5052333,,
1479a,Özdeyiş,,37.861411,32.528625,,
147a,Özal,,37.8376333,32.4401666,,
147d,Özal,,37.8377,32.4402167,,
1480a,Oğuz Kağan İlkokulu,,37.911325,32.478075,,
1480d,Oğuz Kağan İlkokulu,,37.911166,32.47818,,
1481a,Kader,,37.9223,32.4849667,,
1481d,Kader,,37.9223334,32.48505,,
1482a,Buhara Nur Cami,,37.9249833,32.4848833,,
1482d,Buhara Nur Cami,,37.925,32.4851834,,
1483a,Tekgül,,37.9286917,32.487225,,
1483d,Tekgül,,37.9285417,32.487225,,
1484a,Ataseven,,37.9057417,32.4912833,,
1484d,Ataseven,,37.9055666,32.4911,,
1485a,Özışık,,37.935832,32.482976,,
1485d,Özışık,,37.935883,32.482997,,
1486a,Yahyakent,,37.938771,32.4818,,
1486d,Yahyakent,,37.938771,32.481854,,
1487d,Erpolat,,37.940439,32.484039,,
1488d,İntizam,,37.9403166,32.4870416,,
1489a,Ovadüzü,,37.939871,32.489554,,
1489d,Ovadüzü,,37.939865,32.489667,,
148a,Lalebahçe İlkokulu,,37.8361416,32.436925,,
148d,Lalebahçe İlkokulu,,37.836375,32.4371083,,
1490a,Yerlikaya,,37.9378834,32.4883833,,
1490d,Yerlikaya,,37.9378416,32.4882583,,
1491a,Özduman,,37.9359583,32.4895916,,
1491d,Özduman,,37.9358333,32.4895417,,
1492a,Kaşgarlı Mahmut,,37.937,32.4943,,
1492d,Kaşgarlı Mahmut,,37.9372666,32.4943667,,
1493a,Yener,,37.9416083,32.504875,,
1493d,Yener,,37.9416833,32.5050417,,
1494a,Revan,,37.9416167,32.5082,,
1494d,Revan,,37.9416917,32.5084083,,
1495a,Ulunay,,37.9432,32.5094667,,
1495d,Ulunay,,37.9431917,32.5092917,,
1496a,Dolunay,,37.947481,32.509504,,
1496d,Dolunay,,37.9474,32.509358,,
1497a,Zeki Altındağ Cami,,37.9521,32.4984916,,
1497d,Zeki Altındağ Cami,,37.9519917,32.4983167,,
1498a,Adliye Lojmanları,,37.9521,32.4947583,,
1498d,Adliye Lojmanları,,37.9520166,32.4946583,,
1499a,Şensözlü,,37.954025,32.4897583,,
1499d,Şensözlü,,37.9540084,32.4893,,
149a,Çalıklı Cami,,37.834975,32.4341583,,
149d,Çalıklı Cami,,37.8351417,32.4344584,,
1500a,Ahmetler,,37.9904167,32.5124583,,
1500d,Ahmetler,,37.9904833,32.5119666,,
1501a,Parsana Yayla Cami,,37.956463,32.485761,,
1501d,Parsana Yayla Cami,,37.956383,32.48548,,
1502a,Karadiğin Deresi 2,,37.748447,32.363482,,
1502d,Karadiğin Deresi 2,,37.748525,32.363427,,
1503a,Göztepe Konutları Giriş,,37.934195,32.431404,,
1503d,Göztepe Konutları Giriş,,37.934074,32.431522,,
1504a,Sonuç,,37.9673,32.4807084,,
1504d,Sonuç,,37.9674583,32.4808583,,
1505a,Yavuzsoy,,37.9659583,32.4849333,,
1505d,Yavuzsoy,,37.9660583,32.4852417,,
1506a,Şehit Ercan Çelik,,37.963125,32.4921083,,
1506d,Şehit Ercan Çelik,,37.963275,32.4922334,,
1507a,Çanakkale,,37.961875,32.495175,,
1507d,Çanakkale,,37.9619917,32.4954667,,
1508a,Elmalılı Hamdi Hoca,,37.9607917,32.4979417,,
1508d,Elmalılı Hamdi Hoca,,37.9608583,32.498375,,
1509a,Semih,,37.9604,32.5030167,,
1509d,Semih,,37.9605834,32.5030167,,
150a,Petekalan,,37.834125,32.4318583,,
150d,Petekalan,,37.8341583,32.4318833,,
1510a,Erenler,,37.9865084,32.5124167,,
1510d,Erenler,,37.9866167,32.5119833,,
1511a,Otogar Cami,,37.950025,32.5071584,,
1511d,Otogar Cami,,37.9500834,32.5070667,,
1512a,Körükçü,,37.9614917,32.5059,,
1512d,Körükçü,,37.9616667,32.5056334,,
1513a,Güllünar,,37.9647417,32.5074834,,
1513d,Güllünar,,37.9648583,32.5073417,,
1514a,Canfeda,,37.9673,32.509475,,
1514d,Canfeda,,37.9673084,32.50925,,
1515a,Ulusal,,37.97695,32.51575,,
1515d,Ulusal,,37.9770917,32.5156917,,
1516a,Ayçeken,,37.9781666,32.5085166,,
1516d,Ayçeken,,37.9780833,32.5085584,,
1517a,Şener,,37.982825,32.5123583,,
1517d,Şener,,37.9828333,32.5121,,
1518a,Yazır Toki İlkokulu,,37.983664,32.489819,,
1518d,Yazır Toki İlkokulu,,37.9837135,32.489629,,
1519a,Mücadele,,37.985934,32.493046,,
1519d,Mücadele,,37.985987,32.492885,,
151a,Pirhasan Mezarlığı,,37.83295,32.4288833,,
151d,Pirhasan Mezarlığı,,37.8329517,32.429005,,
1520a,Şehit Mustafa Akyüz,,37.9886084,32.4913334,,
1520d,Şehit Mustafa Akyüz,,37.988525,32.49115,,
1521d,Teaş Trafo,,37.84373,32.74926,,
1522a,Köyceğez Kyk Erkek Yurdu,,37.874872,32.409775,,
1523a,Köyceğiz Turnike,,37.866344,32.422687,,
1523d,Köyceğiz Turnike,,37.866546,32.422591,,
1524a,Köyceğiz Kampüs 2,,37.866252,32.421002,,
1524d,Köyceğiz Kampüs 2,,37.866113,32.420856,,
1526a,Kandil,,37.9363166,32.5112166,,
1526d,Kandil,,37.9363166,32.5108833,,
1527a,Ferhatlı,,37.933025,32.5106416,,
1527d,Ferhatlı,,37.93295,32.510275,,
1528a,Teknik Lise,,37.9250667,32.5084667,,
1528d,Teknik Lise,,37.9254416,32.508225,,
1529a,1. Organize,,37.9223,32.50848,,
1529d,1. Organize,,37.92256,32.50805,,
152a,Ahenkli,,37.8307917,32.426475,,
152d,Ahenkli,,37.8309083,32.4264417,,
1530a,Mobilyacılar Kavşağı,,37.9165083,32.507375,,
1530d,Mobilyacılar Kavşağı,,37.9157583,32.5060083,,
1531a,Koza,,37.911825,32.5015917,,
1531d,Koza,,37.9117917,32.5010583,,
1532a,Oğuzeli,,37.907401,32.496544,,
1532d,Oğuzeli,,37.90738,32.4962,,
1533a,Köyceğiz Kyk Kız Yurdu,,37.867556,32.403271,,
1534a,Maun,,37.908587,32.495551,,
1534d,Maun,,37.908551,32.495642,,
1535a,Naima,,37.910916,32.497381,,
1535d,Naima,,37.9108417,32.497375,,
1536a,Vezirhan,,37.9131666,32.4984333,,
1536d,Vezirhan,,37.9132,32.4985167,,
1537a,Küçük,,37.915525,32.498425,,
1537d,Küçük,,37.9153333,32.4985,,
1538a,Kaleköy,,37.9170513,32.4991836,,
1538d,Kaleköy,,37.917,32.4992667,,
1539a,Fethiye Onsun İlkokulu,,37.92025,32.498453,,
1539d,Fethiye Onsun İlkokulu,,37.92004,32.498588,,
153a,Kaynaklar,,37.8289417,32.4233417,,
153d,Kaynaklar,,37.8290583,32.4233167,,
1540a,Lale,,37.9291,32.502575,,
1540d,Lale,,37.928875,32.5026916,,
1541a,Burçin,,37.9339833,32.5026666,,
1541d,Burçin,,37.934,32.5028,,
1542a,Hakim Konakları,,37.982384,32.497923,,
1542d,Hakim Konakları,,37.982403,32.498148,,
1543a,Pınarbaşı Köprü,,38.043119,32.605956,,
1544a,Fidancı,,37.866596,32.45925,,
1544d,Fidancı,,37.866725,32.45939,,
1545a,Salef,,37.892794,32.530903,,
1545d,Salef,,37.892682,32.530721,,
1546a,Dağsaray,,37.897225,32.4915333,,
1547a,Otogar Kavşağı,,37.94946,32.512318,,
1548a,Hızır,,38.005856,32.53486,,
1548d,Hızır,,38.005897,32.534896,,
1549a,Sivaslı Ali Kemal,,37.8762167,32.458675,,
1549d,Sivaslı Ali Kemal,,37.8762417,32.4588917,,
154a,Hacıgiden,,37.8312166,32.42305,,
154d,Hacıgiden,,37.8311833,32.42315,,
1550a,Mübeccel,,37.8724084,32.4579417,,
1550d,Mübeccel,,37.8724,32.4582167,,
1551a,Melikşah Parkı,,37.8696667,32.458125,,
1551d,Melikşah Parkı,,37.869725,32.4583583,,
1552a,Selçuklu Belediyesi Ortaokulu,,37.9860417,32.4951417,,
1552d,Selçuklu Belediyesi Ortaokulu,,37.9860833,32.495225,,
1553a,Cumhuriyet Polis Merkezi,,37.9427,32.5121,,
1553d,Cumhuriyet Polis Merkezi,,37.9427,32.51185,,
1554a,Sukunet,,37.9671183,32.5288416,,
1554d,Sukunet,,37.9670166,32.5288333,,
1556a,Büşra,,37.9692,32.51572,,
1556d,Büşra,,37.96915,32.51535,,
1557a,Soytürk,,37.9694033,32.5303334,,
1557d,Soytürk,,37.9694,32.5304333,,
1558a,Ardıçlı 16601,,38.01745,32.4333,,
1558d,Ardıçlı 16601,,38.0174167,32.43327,,
1559a,Arapağıl Mevki,,38.02115,32.38385,,
1559d,Arapağıl Mevki,,38.0210833,32.38383,,
155a,Anasultan Cami,,37.8336167,32.42255,,
155d,Anasultan Cami,,37.8336417,32.4226083,,
1560a,Akasya,,38.021575,32.37856,,
1560d,Akasya,,38.0215584,32.3785,,
1561a,Yeni Belediye Cd,,38.0629,32.3312,,
1561d,Yeni Belediye Cd,,38.0629584,32.33118,,
1562a,Tekin,,38.0654417,32.32986,,
1562d,Tekin,,38.0655,32.32968,,
1563a,Sıdkı,,37.9512583,32.5181334,,
1563d,Sıdkı,,37.9512583,32.5180934,,
1564a,Turgay,,37.9544583,32.5177333,,
1564d,Turgay,,37.9544283,32.5176833,,
1565a,Abidin Saniye Erçal Ortaokulu,,37.956923,32.517287,,
1565d,Abidin Saniye Erçal Ortaokulu,,37.95688,32.517093,,
1566a,Dönerli,,37.960475,32.5222583,,
1566d,Dönerli,,37.960475,32.5222083,,
1567a,Mta Girişi,,37.9617167,32.52275,,
1567d,Mta Girişi,,37.9617667,32.52275,,
1568a,Gökçeli,,37.9620334,32.52695,,
1568d,Gökçeli,,37.9620167,32.52705,,
1569a,Veli Köy,,37.965075,32.5268417,,
1569d,Veli Köy,,37.965075,32.526925,,
156a,Türkaslan,,37.8333417,32.417925,,
156d,Türkaslan,,37.8333667,32.4179666,,
1570a,Özbek,,37.969862,32.527651,,
1570d,Özbek,,37.969891,32.527644,,
1571a,Salihdede,,37.972517,32.528446,,
1571d,Salihdede,,37.972507,32.528543,,
1572a,Yücetürk,,37.9742417,32.5281417,,
1572d,Yücetürk,,37.9742917,32.5282583,,
1573a,Rağbet,,37.9763417,32.5249334,,
1573d,Rağbet,,37.9764166,32.5249917,,
1574a,Keşmir,,37.97625,32.5227667,,
1574d,Keşmir,,37.9763917,32.5230167,,
1576a,Pamukpınar,,37.919975,32.4426833,,
1576d,Pamukpınar,,37.9201084,32.4427417,,
1577a,Esatpaşa,,37.9223917,32.4441417,,
1577d,Esatpaşa,,37.9226083,32.4442917,,
1578a,Kuytu,,37.9220834,32.44725,,
1578d,Kuytu,,37.9217417,32.4474417,,
1579a,Sezer,,37.9187417,32.4485083,,
1579d,Sezer,,37.918525,32.448625,,
157a,Erhat,,37.8304666,32.4276333,,
157d,Erhat,,37.830325,32.4277083,,
1580a,Şehit Cafer Temel,,37.9584834,32.5268333,,
1580d,Şehit Cafer Temel,,37.9583166,32.52695,,
1581a,Memko,,37.9557833,32.5294333,,
1581d,Memko,,37.9558667,32.5295583,,
1582a,Mübah,,37.9548333,32.5309,,
1582d,Mübah,,37.95485,32.53095,,
1583a,Akşam,,37.9517167,32.5308167,,
1583d,Akşam,,37.9518,32.5309166,,
1584a,Sancaktepe Parkı,,37.9519334,32.5291667,,
1585a,Gönüllü,,37.9492417,32.53335,,
1585d,Gönüllü,,37.9492583,32.5335166,,
1586a,Kağıthane,,37.9498817,32.536275,,
1586d,Kağıthane,,37.9497517,32.53635,,
1587a,Zambak,,37.9498333,32.5396583,,
1587d,Zambak,,37.9497833,32.5395833,,
1588a,Şehit Enes Kaya,,37.9480417,32.531475,,
1588d,Şehit Enes Kaya,,37.9476833,32.5307,,
1589d,Asude,,37.94755,32.527175,,
158a,Ahmet Paşa,,37.828175,32.4263083,,
158d,Ahmet Paşa,,37.828125,32.4263917,,
1590a,Mizan,,37.94839,32.520137,,
1590d,Mizan,,37.948142,32.520132,,
1591a,Dr. Sadık Ahmet,,37.9487417,32.516975,,
1591d,Dr. Sadık Ahmet,,37.9484,32.5169833,,
1592a,Leylekli Parkı,,37.89141,32.45693,,
1592d,Leylekli Parkı,,37.89148,32.4568,,
1593a,Efe,,38.06421,32.33038,,
1593d,Efe,,38.064327,32.330284,,
1594a,Bosna Pazar,,38.0117083,32.5221917,,
1594d,Bosna Pazar,,38.0117083,32.5221417,,
1595a,Mesaj,,38.0146666,32.5213833,,
1595d,Mesaj,,38.0148754,32.5217743,,
1596a,Bosna Mesaj,,38.0176417,32.5234083,,
1596d,Bosna Mesaj,,38.0177078,32.523674,,
1597a,Kambaş,,38.0177083,32.526325,,
1597d,Kambaş,,38.0176917,32.5262083,,
1598a,Göztepe Konutları,,37.9356833,32.44015,,
1599a,Nizam,,38.0153083,32.5299583,,
1599d,Nizam,,38.015425,32.5297667,,
159a,Olcay Fidanlığı,,37.8247583,32.4253917,,
159d,Olcay Fidanlığı,,37.8246,32.4254333,,
1600a,Vatansever,,38.01505,32.5316417,,
1600d,Vatansever,,38.0151,32.5317,,
1601a,Yaldız,,38.0166416,32.5280083,,
1601d,Yaldız,,38.0165167,32.528025,,
1602a,Yunus Emre Cami,,38.012052,32.534273,,
1602d,Yunus Emre Cami,,38.012057,32.534181,,
1603a,Bosna Komek,,38.010915,32.531049,,
1603d,Bosna Komek,,38.010926,32.531103,,
1604a,Kemerli,,38.0121,32.5264833,,
1604d,Kemerli,,38.0121083,32.5266417,,
1605a,Büyük Hizmet,,38.008025,32.528675,,
1605d,Büyük Hizmet,,38.0079417,32.5289084,,
1606a,Nergiz,,38.0062,32.530075,,
1606d,Nergiz,,38.00625,32.5302083,,
1609a,Yemeni,,38.009237,32.532458,,
1609d,Yemeni,,38.009294,32.532489,,
160a,Seyyah,,37.822775,32.4252583,,
160d,Seyyah,,37.82275,32.425375,,
1610a,Mevlevi,,38.0037667,32.5360833,,
1610d,Mevlevi,,38.0037667,32.5359667,,
1611a,Hasip,,38.002565,32.533411,,
1611d,Hasip,,38.002506,32.533449,,
1612a,Hakikat,,38.004157,32.531782,,
1613a,Reyhan,,38.0041667,32.5260083,,
1614a,Nur,,38.0068083,32.5240417,,
1615a,Akif,,38.008975,32.523175,,
1616a,Ümmü Habibe,,37.993075,32.5909334,,
1616d,Ümmü Habibe,,37.992975,32.590675,,
1617a,Ertuğrul Gazi İlkokulu,,38.0075667,32.5355833,,
1617d,Ertuğrul Gazi İlkokulu,,38.0074833,32.535725,,
1618a,Sümeyye,,38.0103834,32.5356166,,
1618d,Sümeyye,,38.010425,32.5357333,,
1619a,Şenay,,38.01385,32.5356333,,
1619d,Şenay,,38.0138083,32.5357417,,
161a,Antik,,37.8203,32.4267583,,
161d,Antik,,37.82015,32.4269083,,
1620a,Işıklar,,38.0020417,32.526225,,
1620d,Işıklar,,38.0020833,32.5265,,
1621a,Ünaldı,,37.999524,32.526408,,
1621d,Ünaldı,,37.999628,32.526633,,
1622a,Yüzerler,,37.9955916,32.525375,,
1622d,Yüzerler,,37.9949917,32.5249917,,
1623a,Çelikeller,,37.9909633384002,32.5230771303177,,
1623d,Çelikeller,,37.99092,32.52335,,
1624a,Ensar,,38.0036417,32.5294834,,
1624d,Ensar,,38.0035416,32.5295083,,
1625a,Gülbahçe,,37.983899,32.523132,,
1625d,Gülbahçe,,37.983881,32.523343,,
1626a,Japon Parkı,,37.9798667,32.5200833,,
1626d,Japon Parkı,,37.9799083,32.5203083,,
1627a,İftihar,,37.9772083,32.5201083,,
1627d,İftihar,,37.9772167,32.52035,,
1628a,Gürşahin,,37.948083,32.541149,,
1628d,Gürşahin,,37.948352,32.541122,,
1629a,Oruç Reis,,37.8893083,32.48316,,
1629d,Oruç Reis,,37.8892083,32.48316,,
162a,Güldiken,,37.818414,32.428411,,
162d,Güldiken,,37.81845,32.428486,,
1630a,Maden Yolu,,37.89055,32.48498,,
1630d,Maden Yolu,,37.8904583,32.48494,,
1631a,Darıkapısı,,37.8920416,32.48717,,
1631d,Darıkapısı,,37.8919917,32.48722,,
1632a,Manavlı,,37.8942334,32.48678,,
1632d,Manavlı,,37.8944,32.48687,,
1633a,Selçuklu Lisesi,,37.8964583,32.48568,,
1633d,Selçuklu Lisesi,,37.8963083,32.48586,,
1634d,Mehteran,,37.899552,32.488637,,
1635a,Adaklı,,37.900165,32.48683,,
1635d,Adaklı,,37.9006083,32.48681,,
1636a,Fatih Cami,,37.9007667,32.48352,,
1636d,Fatih Cami,,37.9010667,32.48397,,
1637a,Selçuklu Nüfus Müdürlüğü,,37.901225,32.47996,,
1637d,Selçuklu Nüfus Müdürlüğü,,37.901375,32.48014,,
1638a,Konya İl Özel İdare,,37.93894,32.511662,,
1638d,Konya İl Özel İdare,,37.93894,32.511266,,
1639a,Zembil,,37.902958,32.476185,,
1639d,Zembil,,37.903027,32.476289,,
163a,Tokalı,,37.8188166,32.43095,,
163d,Tokalı,,37.818875,32.4310166,,
1640a,İlyas,,37.9052917,32.47707,,
1640d,İlyas,,37.9051334,32.47715,,
1641a,Özalkent Mevlana Cami,,37.9076417,32.47538,,
1641d,Özalkent Mevlana Cami,,37.9076916,32.47555,,
1642a,Safa,,37.9096917,32.4721083,,
1642d,Safa,,37.90961,32.47257,,
1643a,22 Nolu Sağlık Ocağı,,37.9102833,32.47648,,
1643d,22 Nolu Sağlık Ocağı,,37.91025,32.47611,,
1644a,Erçevik,,37.908725,32.47922,,
1644d,Erçevik,,37.908575,32.47906,,
1645a,Düşünce,,37.9062583,32.48204,,
1645d,Düşünce,,37.9060584,32.48179,,
1646a,Akbulut,,37.904228,32.483648,,
1646d,Akbulut,,37.904417,32.483814,,
1647a,Günyüzü,,37.902794,32.485069,,
1647d,Günyüzü,,37.902842,32.485359,,
1648a,Halıören,,37.904425,32.48759,,
1648d,Halıören,,37.904112,32.487677,,
1649d,Uhud Cami,,37.90605,32.49025,,
164a,Sapandağı,,37.81955,32.43365,,
164d,Sapandağı,,37.8195917,32.4337083,,
1650d,İskan,,37.9079,32.4892833,,
1651a,Aydınlıkevler Cami,,37.910397,32.489854,,
1652a,İstasyon,,37.8665166,32.47842,,
1652d,İstasyon,,37.866575,32.47843,,
1653a,Asya,,37.853264,32.665544,,
1653d,Asya,,37.853507,32.665593,,
1654a,Metanet,,37.880979,32.453926,,
1654d,Metanet,,37.881816,32.454288,,
1655a,Başkent Hastanesi,,37.88383,32.457483,,
1655d,Başkent Hastanesi,,37.883908,32.4571,,
1656a,Novotel,,37.886235,32.460013,,
1656d,Novotel,,37.886397,32.460785,,
1657a,İncedere,,37.899477,32.451874,,
1657d,İncedere,,37.899556,32.45188,,
1658a,Eşrefoğlu İlkokulu,,37.8894917,32.464775,,
1658d,Eşrefoğlu İlkokulu,,37.8897417,32.4645583,,
1659a,Boyalı,,37.89065,32.46785,,
1659d,Boyalı,,37.8909333,32.46775,,
165a,Topraklık,,37.8171417,32.434225,,
165d,Topraklık,,37.8171083,32.4343667,,
1660a,Eski Sille Cd,,37.89135,32.4718166,,
1660d,Eski Sille Cd,,37.8916667,32.4719,,
1661a,Mahmut Sami Ramazanoğlu İhl,,37.894625,32.481075,,
1661d,Mahmut Sami Ramazanoğlu İhl,,37.894825,32.480775,,
1662a,Konevi Lisesi,,37.8973916,32.4843583,,
1662d,Konevi Lisesi,,37.89775,32.4843167,,
1663a,Mukaddemi,,37.886082,32.479238,,
1663d,Mukaddemi,,37.886168,32.479152,,
1664a,Necmettin Erbakan Parkı,,37.878075,32.48652,,
1665d,Maliye,,37.8761834,32.48488,,
1666a,Uluşahin,,37.877041,32.4826,,
1666d,Uluşahin,,37.87705,32.482713,,
1667a,15 Temmuz Şehitler İlkokulu,,37.8842916,32.4766333,,
1667d,15 Temmuz Şehitler İlkokulu,,37.884125,32.4765917,,
1668a,Fahrettin Ayaz,,37.864059,32.477179,,
1668d,Fahrettin Ayaz,,37.864142,32.476955,,
1669a,İbrahim Müteferrika,,37.8800333,32.47815,,
1669d,İbrahim Müteferrika,,37.880143,32.478391,,
166a,Çayırlı,,37.830775,32.431275,,
166d,Çayırlı,,37.8306083,32.4315417,,
1670a,Kibrit Cami,,37.8821833,32.47368,,
1670d,Kibrit Cami,,37.8819917,32.47359,,
1671a,Şefikcan,,37.8833917,32.47083,,
1671d,Şefikcan,,37.8832583,32.47064,,
1672a,Alemdar Sultan Cami,,37.885825,32.46464,,
1672d,Alemdar Sultan Cami,,37.885975,32.46482,,
1673a,Uzunpınar,,37.8888083,32.46011,,
1673d,Uzunpınar,,37.8888834,32.46038,,
1674a,Kalemoğlu,,37.8932334,32.46125,,
1674d,Kalemoğlu,,37.8928334,32.46142,,
1675a,Arıburun,,37.89535,32.46193,,
1675d,Arıburun,,37.89535,32.46222,,
1676a,Ermek,,37.8983083,32.46284,,
1676d,Ermek,,37.89825,32.46312,,
1677a,14 Nolu Sağlık Ocağı,,37.9012083,32.46427,,
1677d,14 Nolu Sağlık Ocağı,,37.9010583,32.46446,,
1678a,Rauf Denktaş,,37.8826917,32.48724,,
1678d,Rauf Denktaş,,37.88285,32.48733,,
1679a,Eraydın,,37.8864583,32.48231,,
1679d,Eraydın,,37.8865333,32.4825,,
167a,Ekinci,,37.828814,32.43332,,
167d,Ekinci,,37.828843,32.433475,,
1680a,Otlukbeli,,37.8888083,32.48045,,
1680d,Otlukbeli,,37.8887,32.48103,,
1681a,Büyükbayram Ortaokulu,,37.890725,32.47776,,
1681d,Büyükbayram Ortaokulu,,37.8909917,32.47785,,
1682a,Yeditepe,,37.8938417,32.47621,,
1682d,Yeditepe,,37.8944417,32.47576,,
1683a,Gökçedağ,,37.897325,32.47163,,
1683d,Gökçedağ,,37.8972583,32.47206,,
1684a,Salkım,,37.8987417,32.46976,,
1684d,Salkım,,37.8993084,32.46942,,
1685a,Arif,,37.901225,32.46628,,
1685d,Arif,,37.9013617,32.46666,,
1686a,Timurtaş,,37.9038583,32.46299,,
1686d,Timurtaş,,37.9043417,32.46275,,
1687a,Günlük,,37.905626,32.460565,,
1687d,Günlük,,37.905621,32.460929,,
1688a,Tertip,,37.908593,32.456727,,
1688d,Tertip,,37.90866,32.456853,,
1689a,Beşerler Cami,,37.911423,32.45412,,
1689d,Beşerler Cami,,37.911478,32.454287,,
168a,Sağlamtaş,,37.825825,32.4347417,,
168d,Sağlamtaş,,37.825775,32.4348917,,
1690a,Erenköy Hareket Merkezi,,37.913601,32.451705,,
1690d,Erenköy Hareket Merkezi,,37.914159,32.451206,,
1691a,Petekte,,37.91585,32.44572,,
1691d,Petekte,,37.9159583,32.44587,,
1692a,Karyağar,,37.9150083,32.448325,,
1692d,Karyağar,,37.915125,32.4486,,
1693a,Ted Koleji,,37.9258833,32.43645,,
1693d,Ted Koleji,,37.9259,32.43656,,
1694a,Karlıdere,,37.927225,32.43418,,
1694d,Karlıdere,,37.9273,32.43425,,
1695a,Daribeka,,37.9283333,32.42972,,
1695d,Daribeka,,37.928375,32.42981,,
1696a,Sille Mezarlığı,,37.9288,32.42603,,
1696d,Sille Mezarlığı,,37.9288666,32.42602,,
1697a,Sille Halk Kütüphanesi,,37.927519,32.422422,,
1697d,Sille Halk Kütüphanesi,,37.927619,32.42242,,
1698a,Sille,,37.927075,32.419457,,
1698d,Sille,,37.927149,32.419425,,
1699a,Sille Çay Cami,,37.925999,32.417464,,
1699d,Sille Çay Cami,,37.926099,32.417464,,
169a,Eynesli,,37.8240917,32.4365083,,
169d,Eynesli,,37.823946,32.436731,,
16a,Kızılay Hastanesi,,37.866343,32.497633,,
16d,Kızılay Hastanesi,,37.866419,32.4983954,,
1700a,Sille Son Durak,,37.926413,32.414305,,
1700d,Sille Son Durak,,37.926453,32.414336,,
1701a,Sille Baraji,,37.931725,32.401875,,
1701d,Sille Baraji,,37.9314334,32.40175,,
1702a,Baraj,,37.94126,32.380409,,
1702d,Baraj,,37.94126,32.380509,,
1703a,Tatköy Baraj,,37.944184,32.377341,,
1703d,Tatköy Baraj,,37.944098,32.377261,,
1704a,Baraj 2,,37.9463083,32.3754083,,
1704d,Baraj 2,,37.9463,32.37535,,
1705a,16452. Sk,,37.9499916,32.3731833,,
1705d,16452. Sk,,37.9499916,32.3730833,,
1706a,Tatköy Yol Ayrımı,,37.95255,32.3705417,,
1706d,Tatköy Yol Ayrımı,,37.9526084,32.3703917,,
1707a,Baraj 1,,37.9532666,32.3673667,,
1707d,Baraj 1,,37.9532167,32.3673416,,
1708a,Tatköy İlkokulu,,37.9545417,32.365225,,
1708d,Tatköy İlkokulu,,37.9545417,32.3650667,,
1709a,Tatköy Merkez,,37.9545167,32.3623916,,
1709d,Tatköy Merkez,,37.9544583,32.3623417,,
170a,Çalıklı Girişi,,37.8225583,32.4373833,,
170d,Çalıklı Girişi,,37.8225,32.4375583,,
1710a,Tatköy Kumocağı,,37.9393417,32.3919917,,
1710d,Tatköy Kumocağı,,37.9395,32.3921583,,
1711a,Palamut,,37.919225,32.44126,,
1711d,Palamut,,37.919225,32.44136,,
1712a,Nihat,,37.9223,32.43796,,
1712d,Nihat,,37.9222833,32.43807,,
1713a,Terzioğlu Cami,,37.916025,32.45105,,
1713d,Terzioğlu Cami,,37.916075,32.45102,,
1714a,Şehit Mustafa Çalışır,,37.9172083,32.45338,,
1714d,Şehit Mustafa Çalışır,,37.9172417,32.45338,,
1715a,Hira 1,,37.9185083,32.4557,,
1715d,Hira 1,,37.9184917,32.4556,,
1716a,Songül,,37.920425,32.45454,,
1716d,Songül,,37.92065,32.4549,,
1717a,Dinamik,,37.922528,32.457233,,
1717d,Dinamik,,37.922437,32.457292,,
1718a,Tutkun 1,,37.923842,32.45475,,
1718d,Tutkun 1,,37.923869,32.454814,,
1719a,Davet,,37.9197417,32.45823,,
1719d,Davet,,37.9197667,32.45825,,
1720a,Sefa Yolu,,37.918781,32.460747,,
1720d,Sefa Yolu,,37.918855,32.460672,,
1721a,Nurcan Akpınar İlkokulu,,37.918832,32.463676,,
1721d,Nurcan Akpınar İlkokulu,,37.918822,32.463767,,
1722a,Sinem,,37.911301,32.4583,,
1722d,Sinem,,37.911397,32.458128,,
1723a,Güzel Sanatlar Lisesi,,37.914499,32.462422,,
1723d,Güzel Sanatlar Lisesi,,37.914529,32.462387,,
1724a,Güroğlu,,37.916549,32.464116,,
1724d,Güroğlu,,37.91661,32.463968,,
1725a,3. Mehmed,,37.918528,32.46587,,
1725d,3. Mehmed,,37.918648,32.465763,,
1726a,Babacan,,37.9172583,32.46919,,
1726d,Babacan,,37.9171683,32.46929,,
1727a,Vasıl,,37.914675,32.46681,,
1727d,Vasıl,,37.9145917,32.46686,,
1728a,Tahir Hoca Cami,,37.911221,32.466101,,
1728d,Tahir Hoca Cami,,37.911245,32.466145,,
1729a,17349. Sk,,37.734496,32.466165,,
172a,Sarıyayla,,37.824375,32.439925,,
172d,Sarıyayla,,37.82445,32.439975,,
1730a,Dekor,,37.9089333,32.46632,,
1730d,Dekor,,37.9089417,32.46646,,
1731a,Aynur,,37.906625,32.46711,,
1731d,Aynur,,37.906575,32.46729,,
1732a,Gülrevan,,37.9061333,32.47144,,
1732d,Gülrevan,,37.906075,32.47156,,
1733a,Genç Doktorlar,,37.904125,32.47331,,
1733d,Genç Doktorlar,,37.904125,32.47339,,
1734a,Mecaz,,37.9016083,32.47513,,
1734d,Mecaz,,37.901775,32.47513,,
1735a,Nevin,,37.900225,32.476125,,
1735d,Nevin,,37.9001583,32.4763417,,
1736a,Tekbir,,37.89951,32.480038,,
1736d,Tekbir,,37.899525,32.479952,,
1737a,Köşk,,37.8963667,32.47947,,
1737d,Köşk,,37.89655,32.47943,,
1738a,Şehit Ufuk Başarı Asm,,37.9041183,32.45845,,
1738d,Şehit Ufuk Başarı Asm,,37.9041583,32.45839,,
1739a,Seyyid,,37.902075,32.45673,,
1739d,Seyyid,,37.902125,32.45669,,
173a,Kovanağzı Cd,,37.849486,32.483128,,
173d,Kovanağzı Cd,,37.849475,32.483267,,
1740a,Kınataş,,37.899175,32.45474,,
1740d,Kınataş,,37.8991,32.45463,,
1741a,Rahat,,37.8962917,32.45289,,
1741d,Rahat,,37.896275,32.45281,,
1742a,Hocacihan İhl,,37.8934917,32.45041,,
1742d,Hocacihan İhl,,37.8935,32.45033,,
1743a,Şehit Fethi Sekin Lisesi,,37.758446,32.509558,,
1743d,Şehit Fethi Sekin Lisesi,,37.758512,32.509526,,
1744a,Farabi Cd,,37.759147,32.506489,,
1744d,Farabi Cd,,37.759136,32.506575,,
1745a,İrem,,37.8977583,32.44548,,
1745d,İrem,,37.8977083,32.44546,,
1746a,Özenmiş,,37.899482,32.447577,,
1746d,Özenmiş,,37.89948,32.447674,,
1747a,Arafat Cami,,37.9011833,32.45088,,
1747d,Arafat Cami,,37.9013,32.45122,,
1748a,Barut,,37.9044333,32.45133,,
1748d,Barut,,37.9044333,32.4515999,,
1749a,Sabırhane,,37.906889,32.451886,,
1749d,Sabırhane,,37.906787,32.452079,,
174a,Batıhan,,37.8274583,32.4409417,,
174d,Batıhan,,37.8274583,32.4408417,,
1750a,Örgü,,37.9090083,32.45094,,
1751a,Temizer,,37.910625,32.45268,,
1752a,Amine,,37.761641,32.506275,,
1752d,Amine,,37.761626,32.506377,,
1753a,Mehmet Akdoğan Ortaokulu,,37.892468,32.470736,,
1753d,Mehmet Akdoğan Ortaokulu,,37.892593,32.470666,,
1754a,Mehmet Dalan Cami,,37.891274,32.466165,,
1754d,Mehmet Dalan Cami,,37.89134,32.466133,,
1755a,Koyuncular,,37.8921417,32.462775,,
1755d,Koyuncular,,37.8921833,32.46295,,
1756a,Demirbilek,,37.892945,32.459181,,
1756d,Demirbilek,,37.892951,32.459594,,
1757a,Yeniyol,,37.8961417,32.46089,,
1757d,Yeniyol,,37.8961666,32.46095,,
1758a,Kanuni Sultan Süleyman Ortaokulu,,37.8987166,32.45807,,
1758d,Kanuni Sultan Süleyman Ortaokulu,,37.8987417,32.4581,,
1759a,Tozlukbeli,,37.900725,32.45942,,
1759d,Tozlukbeli,,37.900625,32.45936,,
175a,Canbazlar,,37.82956,32.437654,,
175d,Canbazlar,,37.8296,32.437739,,
1760a,Bingöl,,37.901322,32.46225,,
1760d,Bingöl,,37.901387,32.462271,,
1761a,Nefir,,37.877744,32.472469,,
1761d,Nefir,,37.877682,32.47242,,
1762a,Sırmakeş,,37.878775,32.47006,,
1762d,Sırmakeş,,37.878825,32.47003,,
1763a,Mehmet Akif Cami,,37.880431,32.466368,,
1763d,Mehmet Akif Cami,,37.88052,32.466427,,
1764a,Kargı,,37.882001,32.463374,,
1764d,Kargı,,37.882062,32.463438,,
1766a,Tekke Mezarlığı,,37.883307,32.46062,,
1766d,Tekke Mezarlığı,,37.883371,32.460666,,
1767d,Başkent Hastanesi Acil,,37.8847916,32.45715,,
1768a,Sezai,,37.8853834,32.4543167,,
1768d,Sezai,,37.8855667,32.4543,,
1769a,Dedeler,,37.886633,32.451086,,
1769d,Dedeler,,37.886724,32.451129,,
176a,Bakırdağı,,37.8308583,32.4362583,,
176d,Bakırdağı,,37.830875,32.4361083,,
1770a,Şehitler Cami,,37.888364,32.448082,,
1770d,Şehitler Cami,,37.888417,32.448194,,
1771a,Cihan,,37.884588,32.444831,,
1771d,Cihan,,37.884573,32.444949,,
1772a,Ağırsu,,37.88075,32.44387,,
1773a,Fazlı,,37.8829667,32.4395583,,
1773d,Fazlı,,37.8828666,32.439425,,
1774a,Tatminkar,,37.885966,32.439204,,
1774d,Tatminkar,,37.885995,32.438914,,
1775a,Hazal,,37.664858,32.598354,,
1775d,Hazal,,37.665218,32.598425,,
1776a,Banket,,37.883257,32.433448,,
1777a,Civan,,37.88725,32.43466,,
1778a,Seyfullah Cami,,37.8898833,32.43678,,
1779a,Yurtseven,,37.892375,32.44006,,
1779d,Yurtseven,,37.892425,32.44006,,
177a,Yerleşen,,37.8328917,32.4349917,,
177d,Yerleşen,,37.8328583,32.4349084,,
1780a,Azam,,37.890525,32.4440167,,
1780d,Azam,,37.8906167,32.4441667,,
1781a,Nazlı,,38.022449,32.490353,,
1781d,Nazlı,,38.022367,32.490322,,
1782a,Edebalı,,37.88447,32.45454,,
1782d,Edebalı,,37.88445,32.45458,,
1783a,Hekimbaşı,,37.8825417,32.45174,,
1783d,Hekimbaşı,,37.8826,32.45178,,
1784a,Taşburun,,37.890826,32.448422,,
1784d,Taşburun,,37.890692,32.448538,,
1785a,Mantar,,37.88264,32.44914,,
1785d,Mantar,,37.8826,32.44915,,
1787a,11 Nolu Sağlık Ocağı,,37.8865833,32.44537,,
1787d,11 Nolu Sağlık Ocağı,,37.886374,32.445448,,
1788a,Deresuyu,,37.88822,32.4564,,
1788d,Deresuyu,,37.88826,32.45624,,
1789a,Seyit Emre,,37.922344,32.453511,,
1789d,Seyit Emre,,37.922397,32.453554,,
178a,Çavuşlar,,37.829425,32.4495917,,
178d,Çavuşlar,,37.8294583,32.4496917,,
1790a,Hocacihan Kuba Cami,,37.89035,32.4419417,,
1790d,Hocacihan Kuba Cami,,37.890525,32.441925,,
1791a,Alaybeyi,,37.89355,32.44113,,
1791d,Alaybeyi,,37.8935917,32.44124,,
1792a,Evliyalar,,37.8950667,32.43943,,
1792d,Evliyalar,,37.895,32.43948,,
1793a,Altınok,,37.8962667,32.44148,,
1793d,Altınok,,37.89625,32.44147,,
1794a,Özyer,,37.8938833,32.4339333,,
1794d,Özyer,,37.893775,32.4338,,
1795a,Sarayköy,,37.9017083,32.4055333,,
1795d,Sarayköy,,37.9016834,32.4053833,,
1796a,Rahman Cami,,37.9021417,32.4019917,,
1796d,Rahman Cami,,37.9020083,32.4019584,,
1797a,13193. Sk,,37.8992667,32.4001834,,
1797d,13193. Sk,,37.8990584,32.400175,,
1798a,Sarayköy Merkez,,37.8977334,32.3995,,
1798d,Sarayköy Merkez,,37.8976917,32.3996,,
1799a,13206. Sk,,37.9131917,32.3773166,,
1799d,13206. Sk,,37.91315,32.3773333,,
179a,Orta Cami,,37.827475,32.4534917,,
179d,Orta Cami,,37.8275833,32.4535,,
17a,İl Milli Eğitim Müdürlüğü,,37.8655167,32.50088,,
1800a,Sarayköy Mezarlığı,,37.9139833,32.37455,,
1800d,Sarayköy Mezarlığı,,37.9139916,32.374325,,
1801a,Nezaketli,,37.8935583,32.4734917,,
1801d,Nezaketli,,37.8937917,32.4736916,,
1802a,Ketenciler Sanayi,,37.96518,32.6521,,
1802d,Ketenciler Sanayi,,37.9647,32.65218,,
1803a,Sarayköy Yolu,,37.900432,32.410343,,
1803d,Sarayköy Yolu,,37.900645,32.410064,,
1804a,Konya Gıda Ve Tarım Üniversitesi,,37.876025,32.47491,,
1804d,Konya Gıda Ve Tarım Üniversitesi,,37.876396,32.474775,,
1805a,Haşmetli,,37.8767166,32.47243,,
1805d,Haşmetli,,37.8769083,32.47264,,
1806a,Konya Şeker Fabrikası,,37.8772833,32.46913,,
1806d,Konya Şeker Fabrikası,,37.8774583,32.46917,,
1807a,Göktürkler,,37.8780833,32.46402,,
1807d,Göktürkler,,37.878275,32.46408,,
1808a,Cennet Pınar,,37.8785167,32.46113,,
1808d,Cennet Pınar,,37.8787,32.46122,,
1809a,Hacıköy,,37.879375,32.45586,,
1809d,Hacıköy,,37.87955,32.45596,,
180a,Zafer 2,,37.8269,32.4560167,,
180d,Zafer 2,,37.82695,32.4560834,,
1810a,Vişneli,,37.87975,32.449686,,
1810d,Vişneli,,37.880023,32.449707,,
1811a,Başakçı,,37.8798083,32.4464417,,
1811d,Başakçı,,37.88005,32.4467,,
1812a,Kocakent,,37.8798666,32.4429666,,
1812d,Kocakent,,37.8801084,32.4429583,,
1813a,Uygur,,37.880857,32.43856,,
1813d,Uygur,,37.881024,32.438715,,
1814a,Pekşenler,,37.8817167,32.4353,,
1814d,Pekşenler,,37.88201,32.4348,,
1815a,Defterci,,37.879871,32.431404,,
1815d,Defterci,,37.880242,32.43134,,
1816a,Eski Meram Tıp,,37.8774583,32.4300583,,
1816d,Eski Meram Tıp,,37.8777167,32.429975,,
1817a,Arıtma Tesisleri,,37.87437,32.428457,,
1817d,Arıtma Tesisleri,,37.874257,32.428061,,
1818a,Çığlı,,37.870375,32.4258583,,
1818d,Çığlı,,37.8704417,32.4257667,,
1819a,Gökçeyer,,37.868159,32.424811,,
1819d,Gökçeyer,,37.868229,32.424666,,
181a,Şensesli,,37.825575,32.460325,,
181d,Şensesli,,37.82565,32.4603833,,
1820a,Demeç,,37.8653333,32.425375,,
1820d,Demeç,,37.8655333,32.425225,,
1821a,Huzurevi,,37.862418,32.424688,,
1821d,Huzurevi,,37.862327,32.424709,,
1822a,Başkalaycılar,,37.85935,32.423009,,
1822d,Başkalaycılar,,37.859314,32.422907,,
1823a,Köyceğiz,,37.8575609,32.421898,,
1823d,Köyceğiz,,37.857503,32.421968,,
1824a,Köyceğiz Mezarlığı,,37.856648,32.419452,,
1824d,Köyceğiz Mezarlığı,,37.856726,32.419399,,
1825a,Bolvadin,,37.855733,32.416958,,
1825d,Bolvadin,,37.855803,32.416909,,
1826a,Medet,,37.855724,32.412199,,
1826d,Medet,,37.855769,32.412135,,
1827a,Dere,,37.855925,32.4088083,,
1827d,Dere,,37.855943,32.408789,,
1828a,Dere Cumhuriyet İlkokulu,,37.856746,32.405888,,
1829a,Meram Ptt,,37.857322,32.401267,,
182a,Taş,,37.824444,32.463513,,
182d,Taş,,37.824466,32.463546,,
1830a,Saraylı,,37.9054083,32.39565,,
1830d,Saraylı,,37.905425,32.3957583,,
1831a,Tepehan,,37.858306,32.397753,,
1832a,Seslikaya,,37.857957,32.394883,,
1833a,Aşıklar Cami,,37.856779,32.391562,,
1834a,Elektrik,,37.855455,32.390091,,
1835a,Çatıkkaş,,37.854761,32.388391,,
183a,Antalya Çevre Yolu,,37.8243083,32.4662,,
183d,Antalya Çevre Yolu,,37.8245917,32.466125,,
1842a,Konya Dedemli Mah. 1,,37.65258,32.601965,,
1843a,Konya Dedemli Mah. 2,,37.650998,32.599501,,
1844a,Konya Dedemli Mah. 3,,37.647664,32.601731,,
1845a,Konya Dedemli Mah. 4,,37.648094,32.604977,,
1846a,Konya Dedemli Mah. 5,,37.648734,32.608168,,
1847a,Konya Dedemli Mah. 6,,37.654133,32.60446,,
1848a,Konya Dedemli Mah. 7,,37.656389,32.602942,,
1849a,Konya Çumra Yolu 1,,37.658837,32.602248,,
1849d,Konya Çumra Yolu 1,,37.658953,32.602625,,
184a,Şerefler,,37.825675,32.4694833,,
184d,Şerefler,,37.825985,32.4693633,,
1850a,Konya Çumra Yolu 2,,37.662994,32.599573,,
1850d,Konya Çumra Yolu 2,,37.663076,32.599825,,
1851a,Konya Çumra Yolu 3,,37.667364,32.596659,,
1851d,Konya Çumra Yolu 3,,37.667444,32.597035,,
1852a,Hoşbu,,37.81055,32.492778,,
1852d,Hoşbu,,37.81043,32.4927842,,
1853a,Halil İbrahim Kılıç Cami,,37.81328,32.490289,,
1853d,Halil İbrahim Kılıç Cami,,37.813206,32.490224,,
1854a,Sarayköy İmam Azam Cami,,37.898341,32.405729,,
1854d,Sarayköy İmam Azam Cami,,37.898436,32.405622,,
1855a,Cemel Ali Dede Türbesi,,37.8554333,32.4236166,,
1855d,Cemel Ali Dede Türbesi,,37.855361,32.423716,,
1856a,Niğde,,37.8550333,32.4208333,,
1856d,Niğde,,37.854994,32.420814,,
1857a,Gazeteci,,37.8548,32.4184166,,
1857d,Gazeteci,,37.854799,32.418379,,
1858a,Dere Cd,,37.8556334,32.41395,,
1858d,Dere Cd,,37.855614,32.413878,,
185a,Kozan,,37.8262166,32.4585334,,
185d,Kozan,,37.8262334,32.4586833,,
1861a,Görkem,,38.028275,32.488455,,
1861d,Görkem,,38.02834,32.488481,,
1862a,Özcan,,37.8983517,32.4485,,
1862d,Özcan,,37.8981033,32.4485,,
1863a,Sosyal,,37.8956083,32.4448083,,
1863d,Sosyal,,37.895265,32.444775,,
1864a,Batarya,,37.892525,32.442425,,
1864d,Batarya,,37.89235,32.4427833,,
1865a,Sadık,,37.994175,32.5144,,
1865d,Sadık,,37.9944833,32.5142167,,
1866a,Alemdar Park,,37.9094333,32.454325,,
1866d,Alemdar Park,,37.90934243728118,32.454487178474665,,
1867a,Fizik Tedavi Hst,,37.993536,32.483759,,
1867d,Fizik Tedavi Hst,,37.993598,32.4839,,
1868a,Akıl Ve Ruh Sağlığı Hastanesi,,37.99009,32.47935,,
1868d,Akıl Ve Ruh Sağlığı Hastanesi,,37.989975,32.47935,,
1869a,Üftade,,37.9592167,32.5292883,,
186d,Bitki,,37.8258583,32.4666583,,
1870a,Karabük,,37.9587417,32.5334417,,
1871a,Ebu Müslim,,37.9563333,32.5368584,,
1872a,Gamzeli Yüz,,37.9527166,32.5386916,,
1873a,Osman Demir İlkokulu,,37.953825,32.5256917,,
1874a,Büyükşahin,,37.9454,32.5204666,,
1874d,Büyükşahin,,37.9452083,32.520625,,
1875a,Zafer Sanayi,,37.94155,32.5230166,,
1875d,Zafer Sanayi,,37.9414,32.5233417,,
1876a,Tırsan Sanayi,,37.9361583,32.524675,,
1876d,Tırsan Sanayi,,37.9360084,32.524875,,
1877a,Selçuklu Cami,,37.9323417,32.524425,,
1877d,Selçuklu Cami,,37.9319583,32.5245417,,
1878a,Hacılar,,37.9286417,32.5225083,,
1878d,Hacılar,,37.928525,32.5225417,,
1879a,Haskon,,37.925375,32.5194083,,
1879d,Haskon,,37.925075,32.5194917,,
187d,Şifa Hatun Lisesi,,37.807833,32.416239,,
1880a,İstikamet,,37.9219584,32.5162416,,
1880d,İstikamet,,37.9218166,32.5164333,,
1881a,Çaman,,37.9188417,32.512875,,
1881d,Çaman,,37.9186417,32.5129083,,
1882a,Konya,,38.014227,32.534392,,
1882d,Konya,,38.0142,32.534432,,
1883a,Tevhid Cami,,37.8437583,32.4473084,,
1884a,Fizik Tedavi,,37.992988,32.485038,,
1884d,Fizik Tedavi,,37.99299,32.485123,,
1885a,Aşağı Pınarbaşı Mezarlığı,,38.0361167,32.59795,,
1886a,16714. Sk,,38.039625,32.5978416,,
1887a,16752. Sk,,38.043051,32.596473,,
1888a,16814. Sk,,38.0473583,32.593625,,
1889a,16808. Sk,,38.0489583,32.5964166,,
188a,Kocaman,,37.8295833,32.46195,,
188d,Kocaman,,37.829575,32.461925,,
1890a,Yeşil Bursa,,37.8574167,32.6182917,,
1891a,14651. Sk,,37.8003167,32.6617333,,
1892a,Aksaray,,37.9537833,32.58125,,
1892d,Aksaray,,37.9539833,32.5812,,
1893a,4. Organize Girişi,,37.9544333,32.5854667,,
1893d,4. Organize Girişi,,37.95465,32.5855083,,
1894a,418. Sk,,37.9554417,32.591975,,
1894d,418. Sk,,37.9556833,32.5919833,,
1895a,420. Sk,,37.9568667,32.6013,,
1895d,420. Sk,,37.9571334,32.6015666,,
1896a,Aksaray D 300 Yolu,,37.9576667,32.6064417,,
1896d,Aksaray D 300 Yolu,,37.9579,32.6064833,,
1897a,Aksaray Çevre Yolu,,37.960357,32.624384,,
1897d,Aksaray Çevre Yolu,,37.960687,32.624188,,
1898a,Bora,,37.857308,32.65017,,
1898d,Bora,,37.857416,32.65016,,
1899d,Ereğli Yolu Hüyük,,37.846409,32.725954,,
189a,Nacizane,,37.8309417,32.457875,,
189d,Nacizane,,37.8310667,32.4578833,,
18a,Ayna,,37.862161,32.500985,,
1900a,Hamzazade,,37.8105417,32.51455,,
1900d,Hamzazade,,37.8105083,32.5144084,,
1905a,Karşıköy,,37.9115517,32.4888917,,
1905d,Karşıköy,,37.9116083,32.4891133,,
1906a,Bakırtolu Girişi,,37.793577,32.813462,,
1906d,Bakırtolu Girişi,,37.793399,32.813441,,
1909a,Muhafaza,,37.93205,32.46655,,
1909d,Muhafaza,,37.9319,32.46665,,
190a,Samuray,,37.8341417,32.4595917,,
190d,Samuray,,37.8342417,32.459525,,
1910a,Meral,,37.9297833,32.4665417,,
1910d,Meral,,37.9296417,32.4666167,,
1911a,Korcan,,37.926232,32.467973,,
1911d,Korcan,,37.926256,32.468075,,
1912a,Talip,,37.924613,32.472935,,
1912d,Talip,,37.924768,32.472897,,
1914a,Yeni Meram Tıp,,37.884719,32.432675,,
1914d,Yeni Meram Tıp,,37.884745,32.432863,,
1917a,Çevre Yolu 10,,37.9004,32.535925,,
1917d,Çevre Yolu 10,,37.90031,32.53561,,
1918a,Çevre Yolu 11,,37.9119084,32.523175,,
1918d,Çevre Yolu 11,,37.9117,32.52295,,
1919a,Reisköy,,37.970723,32.612544,,
1919d,Reisköy,,37.970662,32.612404,,
191a,Narinli,,37.8361083,32.461175,,
191d,Narinli,,37.8363083,32.4611917,,
1920a,Organize Müdürlüğü,,37.9745083,32.610825,,
1920d,Organize Müdürlüğü,,37.974427,32.610666,,
1921a,Evrenköy 1,,37.978875,32.6087917,,
1921d,Evrenköy 1,,37.978712,32.608601,,
1922a,Evrenköy,,37.9823583,32.6071083,,
1922d,Evrenköy,,37.982216,32.606976,,
1923a,Yükselen,,37.985175,32.604225,,
1923d,Yükselen,,37.984986,32.604106,,
1924a,Kaşınhanı Alt Geçit,,37.7032333,32.5641833,,
1924d,Kaşınhanı Alt Geçit,,37.703208,32.564235,,
1925a,Menderes,,37.701349,32.565171,,
1925d,Menderes,,37.701411,32.565236,,
1926a,Akıncılar Parkı,,37.902853,32.467104,,
1926d,Akıncılar Parkı,,37.902952,32.466846,,
1927a,Beyazsu,,37.901919,32.471595,,
1927d,Beyazsu,,37.902157,32.471853,,
1928a,Nakışlı,,37.900108,32.473703,,
1928d,Nakışlı,,37.900193,32.473923,,
1929a,Dağpınar,,37.883214,32.509135,,
1929d,Dağpınar,,37.88329,32.509237,,
192a,Panel,,37.8385993,32.4624248,,
192d,Panel,,37.8384833,32.4623,,
1930a,Ali Ulvi Kurucu,,37.8851447,32.505625,,
1930d,Ali Ulvi Kurucu,,37.885225,32.5059,,
1931a,Şair Senihi,,37.886708,32.502039,,
1931d,Şair Senihi,,37.88671,32.502322,,
1932a,Hacı Faik,,37.933476,32.463773,,
1932d,Hacı Faik,,37.9335,32.463848,,
1933a,Sabit,,37.93656,32.465165,,
1933d,Sabit,,37.936566,32.465232,,
1934a,Seyfi,,37.93908,32.463773,,
1934d,Seyfi,,37.938932,32.464052,,
1935a,Demirkıran,,37.930922,32.477959,,
1935d,Demirkıran,,37.930905,32.47812,,
1936a,Hısım,,37.927862,32.478888,,
1936d,Hısım,,37.927996,32.478824,,
1937a,Naz,,37.92974,32.481849,,
1937d,Naz,,37.929807,32.481635,,
1938a,Dokumalı,,37.93348,32.481956,,
1938d,Dokumalı,,37.933446,32.481677,,
1939a,Yazlık,,37.798425,32.513299,,
1939d,Yazlık,,37.798229,32.513166,,
193a,Kelleciler,,37.8480166,32.4662833,,
193d,Kelleciler,,37.84815,32.46615,,
1940a,15294. Sk,,37.77992,32.521398,,
1940d,15294. Sk,,37.77996,32.521505,,
1941a,Hanefi Aytekin İlkokulu,,37.781424,32.526112,,
1941d,Hanefi Aytekin İlkokulu,,37.781412,32.526021,,
1942a,Alabayır,,37.783998,32.524911,,
1942d,Alabayır,,37.783989,32.524833,,
1943a,Uğuray,,37.837057,32.480151,,
1943d,Uğuray,,37.837161,32.480172,,
1944a,Bayramoğlu,,37.9517917,32.4691361,,
1944d,Bayramoğlu,,37.9517583,32.469075,,
1945a,1. Abdülhamid,,37.966433,32.488688,,
1945d,1. Abdülhamid,,37.966576,32.488463,,
1947a,3. Selim,,37.968865,32.490475,,
1947d,3. Selim,,37.969041,32.490149,,
1948a,4. Mustafa,,37.972365,32.493029,,
1948d,4. Mustafa,,37.972491,32.492826,,
1949a,2. Mahmud,,37.977128,32.493276,,
1949d,2. Mahmud,,37.977041,32.492973,,
194a,Haydar Efendi Cami,,37.850125,32.465475,,
194d,Haydar Efendi Cami,,37.8500417,32.4653583,,
1950a,Mescidi Aksa,,37.852345,32.472433,,
1950d,Mescidi Aksa,,37.852353,32.47228,,
1951a,Albayrak,,37.954539,32.469522,,
1951d,Albayrak,,37.954675,32.469574,,
1952a,İnayet Cami,,37.846702,32.476206,,
1953a,Camikebir,,37.856984,32.399421,,
1954a,Yeşil Yazı Cami,,37.794569,32.517094,,
1954d,Yeşil Yazı Cami,,37.794586,32.517004,,
1955a,Büyükçiçek,,37.8268,32.415551,,
1955d,Büyükçiçek,,37.827016,32.41548,,
1956a,Ulusoylar,,37.827409,32.420188,,
1956d,Ulusoylar,,37.827606,32.420058,,
1957a,Kayakent,,37.919271,32.46989,,
1957d,Kayakent,,37.919353,32.469942,,
1958a,Semavi,,37.917391,32.474684,,
1958d,Semavi,,37.917436,32.474748,,
1959a,İkipınar,,37.958768,32.482919,,
1959d,İkipınar,,37.958998,32.482867,,
195a,Meram Bağları,,37.852936,32.42327,,
195d,Meram Bağları,,37.852968,32.423319,,
1960a,İğdeli Ağıl Mevki,,38.017662,32.389846,,
1960d,İğdeli Ağıl Mevki,,38.017559,32.389824,,
1961d,Yükselen Meşelik,,38.029378,32.362925,,
1962a,Anadağ,,37.787536,32.523101,,
1962d,Anadağ,,37.787519,32.523033,,
1963a,Hisarlık Cd,,37.790988,32.520764,,
1963d,Hisarlık Cd,,37.790977,32.520702,,
1964a,Azimli,,37.794216,32.518491,,
1964d,Azimli,,37.794198,32.518419,,
1966a,Sadakat,,37.801175,32.516475,,
1966d,Sadakat,,37.8012833,32.5162667,,
1967a,Toprak Su Enstitüsü,,37.806351,32.515363,,
1967d,Toprak Su Enstitüsü,,37.8062,32.515089,,
1968a,Tanışlı,,37.82769,32.43246,,
1968d,Tanışlı,,37.827577,32.432542,,
1969a,Alışık,,37.825194,32.429885,,
1969d,Alışık,,37.825154,32.430039,,
196a,Hadis,,37.8311666,32.50555,,
196d,Hadis,,37.8311566,32.505419,,
1970a,Yazan,,37.821637,32.42952,,
1970d,Yazan,,37.821707,32.429715,,
1971a,Taşpınar,,37.81855,32.430576,,
1971d,Taşpınar,,37.818558,32.43071,,
1972a,Altınoluk Cami,,37.816506,32.431375,,
1972d,Altınoluk Cami,,37.816538,32.431469,,
1973a,Tepegöz,,37.813837,32.432392,,
1973d,Tepegöz,,37.813879,32.432476,,
1974a,Osmanlı Cd,,37.724393,32.333485,,
1975a,Uluyayla Cd Üst Geçit,,37.914003,32.500038,,
1975d,Uluyayla Cd Üst Geçit,,37.914174,32.500065,,
1976a,Rümeysa,,37.690083,32.581927,,
1976d,Rümeysa,,37.690153,32.582158,,
1977a,Karaman Yolu Çarıklar 1,,37.684041,32.585798,,
1977d,Karaman Yolu Çarıklar 1,,37.68416,32.586117,,
1978a,Karaman Yolu Çarıklar 2,,37.67966,32.588701,,
1978d,Karaman Yolu Çarıklar 2,,37.67981,32.58899,,
1979a,Karaman Yolu Çarıklar 3,,37.675312,32.59156,,
1979d,Karaman Yolu Çarıklar 3,,37.675417,32.591782,,
197a,Küçük Aymanas,,37.840132,32.503116,,
197d,Küçük Aymanas,,37.840117,32.503008,,
1980a,Parseller Trafo 1,,37.752257,32.510241,,
1980d,Parseller Trafo 1,,37.75223,32.510167,,
1981a,Parseller Trafo 2,,37.750355,32.511473,,
1981d,Parseller Trafo 2,,37.750308,32.511411,,
1982a,Parseller Trafo 3,,37.747636,32.514158,,
1982d,Parseller Trafo 3,,37.747622,32.514084,,
1983a,Parseller Trafo 4,,37.746106,32.511243,,
1983d,Parseller Trafo 4,,37.74615,32.511204,,
1984a,Parseller Trafo 5,,37.748129,32.50881,,
1984d,Parseller Trafo 5,,37.748151,32.508908,,
1985a,Parseller Trafo 6,,37.750729,32.506435,,
1985d,Parseller Trafo 6,,37.750771,32.50654,,
1986a,Abdülmecid,,37.979315,32.491146,,
1986d,Abdülmecid,,37.979452,32.491362,,
1987a,Yerlikaya,,37.785197,32.53262,,
198a,Şehirler,,37.819132,32.468048,,
198d,Şehirler,,37.819172,32.467984,,
1990a,Aslım Cd 1,,37.9508,32.57606,,
1990d,Aslım Cd 1,,37.950821,32.576521,,
1991a,Aslım Cd 2,,37.947275,32.5768917,,
1991d,Aslım Cd 2,,37.947275,32.5773517,,
1992a,Aslım Cd 3,,37.9429333,32.5776,,
1992d,Aslım Cd 3,,37.9429333,32.57799,,
1993a,Aslım Cd 4,,37.9391334,32.5758916,,
1993d,Aslım Cd 4,,37.9390534,32.5764516,,
1994a,Aslım Cd 5,,37.936675,32.5737083,,
1994d,Aslım Cd 5,,37.936555,32.5739983,,
1995a,Kobisan 1,,37.9358334,32.5701833,,
1995d,Kobisan 1,,37.9357234,32.5701833,,
1996a,Kobisan 2,,37.93767,32.5672,,
1996d,Kobisan 2,,37.9378933,32.5673,,
1997a,Kobisan 3,,37.9404417,32.5633833,,
1997d,Kobisan 3,,37.94037,32.56313,,
1998a,Kobisan 4,,37.9423917,32.5604833,,
1998d,Kobisan 4,,37.94237,32.559983,,
1999a,Kobisan 5,,37.941925,32.5579667,,
1999d,Kobisan 5,,37.941795,32.558202,,
199a,Şeyh Şamil Cami,,37.820539,32.468349,,
199d,Şeyh Şamil Cami,,37.820545,32.468279,,
19a,Eski Garaj,,37.8652334,32.5024,,
19d,Eski Garaj,,37.8652334,32.50265,,
2000a,Kobisan 6,,37.9390583,32.555625,,
2000d,Kobisan 6,,37.9390583,32.555755,,
2001a,Kobisan 7,,37.9361666,32.5527917,,
2001d,Kobisan 7,,37.935787,32.552916,,
2002a,Kobisan 8,,37.9329583,32.5515333,,
2002d,Kobisan 8,,37.933016,32.551843,,
2003a,Gülistan Cd 1,,37.9309966,32.5545534,,
2003d,Gülistan Cd 1,,37.9311966,32.5548034,,
2004a,Gülistan Cd 2,,37.9288417,32.5580833,,
2004d,Gülistan Cd 2,,37.9289917,32.5581833,,
2005a,Gülistan Cd 3,,37.9262917,32.56205,,
2005d,Gülistan Cd 3,,37.9265517,32.56219,,
2006a,Aslım Cd 6,,37.9226567,32.5612666,,
2006d,Aslım Cd 6,,37.922655,32.5616645,,
2007a,Aslım Cd 7,,37.919045,32.5579434,,
2007d,Aslım Cd 7,,37.918973,32.558303,,
2008a,Özlem Cd,,37.9163584,32.5555585,,
2008d,Özlem Cd,,37.916257,32.555996,,
2009a,Aslım Cd 8,,37.9133667,32.55465,,
2009d,Aslım Cd 8,,37.9133667,32.55495,,
200a,Mescidi Aksa Cami,,37.8222167,32.4748167,,
200d,Mescidi Aksa Cami,,37.8221667,32.4748333,,
2010a,10565. Sk,,37.9105583,32.5545817,,
2010d,10565. Sk,,37.9105083,32.5547817,,
2011a,Demir Cd,,37.9163333,32.5452,,
2011d,Demir Cd,,37.9163333,32.545,,
2012a,Ayyıldız Cd 1,,37.9189333,32.5454833,,
2012d,Ayyıldız Cd 1,,37.9189333,32.5455833,,
2013a,Ayyıldız Cd 2,,37.9214,32.5477917,,
2013d,Ayyıldız Cd 2,,37.9214,32.5478917,,
2014a,Kupa Cd 1,,37.9247667,32.5497667,,
2014d,Kupa Cd 1,,37.924645,32.54954,,
2015a,Kupa Cd 2,,37.9268,32.546125,,
2015d,Kupa Cd 2,,37.926819,32.545886,,
2016a,Kenitra Cd,,37.9285167,32.5431083,,
2016d,Kenitra Cd,,37.9283167,32.5431083,,
2017a,Medcezir Cd 1,,37.9274667,32.5398667,,
2017d,Medcezir Cd 1,,37.9273767,32.5398667,,
2018a,Medcezir Cd 2,,37.9247083,32.5374083,,
2018d,Medcezir Cd 2,,37.9246083,32.5374583,,
2019a,Medcezir Cd 3,,37.922575,32.5355167,,
2019d,Medcezir Cd 3,,37.922455,32.5356167,,
201a,Fidan,,37.8214083,32.4779083,,
201d,Fidan,,37.8214,32.4778,,
2020a,Medcezir Cd 4,,37.9200833,32.5333917,,
2020d,Medcezir Cd 4,,37.919991,32.533453,,
2021a,Çelik Cd,,37.9183083,32.5350917,,
2021d,Çelik Cd,,37.9184083,32.5350917,,
2022a,Hüda Cd 1,,37.9154167,32.5324583,,
2022d,Hüda Cd 1,,37.9153267,32.5323583,,
2023a,Hüda Cd 2,,37.9177666,32.5287167,,
2023d,Hüda Cd 2,,37.9175666,32.5286067,,
2024a,Hüda Cd 3,,37.919386,32.52578,,
2024d,Hüda Cd 3,,37.91949,32.525914,,
2025a,Gazze Cd 1,,37.8296,32.4771083,,
2025d,Gazze Cd 1,,37.8296,32.4769098,,
2026a,İbrahim Ethem Cami,,37.833065,32.475355,,
2026d,İbrahim Ethem Cami,,37.832966,32.475087,,
2027a,Gazze Cd 2,,37.836706,32.473834,,
2027d,Gazze Cd 2,,37.836675,32.473647,,
2028a,Gazze Cd 3,,37.8386083,32.473175,,
2028d,Gazze Cd 3,,37.8385583,32.473005,,
2029a,Gazze Cd 4,,37.8413583,32.4720417,,
2029d,Gazze Cd 4,,37.84132583,32.4719517,,
202a,Adil Şahin,,37.823201,32.468751,,
202d,Adil Şahin,,37.823122,32.468799,,
2030a,Gazze Cd 5,,37.8445983,32.471525,,
2030d,Gazze Cd 5,,37.8446583,32.471265,,
2031a,Gazze Cd 6,,37.847075,32.472125,,
2031d,Gazze Cd 6,,37.847175,32.472045,,
2032a,Şatır Yolu 2,,37.834172,32.721482,,
2033a,Şehit Abdullah Aslan 2,,37.865846,32.630327,,
2033d,Şehit Abdullah Aslan 2,,37.865903,32.630343,,
2034a,Tolular,,37.845632,32.621129,,
2035a,Kılınçyolu,,37.854976,32.613057,,
2035d,Kılınçyolu,,37.85496,32.613231,,
203a,Gökten,,37.8231666,32.4717667,,
203d,Gökten,,37.82315,32.4716,,
204a,Çetince,,37.826421,32.464813,,
205a,Çarşamba,,37.851518,32.465237,,
2069a,Köyceğiz Kampüs 3,,37.862251,32.416955,,
2069d,Köyceğiz Kampüs 3,,37.86195,32.416759,,
206a,Tapu Ve Kadastro,,37.86035,32.47683,,
2071a,Sakyatan Kanal,,37.795544,32.804031,,
2072a,Bakırtolu Yol Ayrımı,,37.834387,32.789852,,
2073a,Feryadi,,37.887901,32.476583,,
2073d,Feryadi,,37.887958,32.476604,,
2074a,Kılıçarslan,,37.8898666,32.4742167,,
2074d,Kılıçarslan,,37.8898666,32.4743167,,
2075a,Elmas Kuran Kursu,,37.8896334,32.470325,,
2075d,Elmas Kuran Kursu,,37.8897334,32.470325,,
2076a,Adakale Cd,,37.887475,32.467575,,
2076d,Adakale Cd,,37.887555,32.467555,,
2077a,İnanç,,37.8847583,32.4647,,
2077d,İnanç,,37.8848383,32.4647,,
2078a,Şehit Ömer Halisdemir Cd,,37.88258,32.462148,,
2078d,Şehit Ömer Halisdemir Cd,,37.882652,32.462005,,
2079a,Kıyak,,37.8802,32.460946,,
2079d,Kıyak,,37.880268,32.460688,,
207a,Meram Kaymakamlığı,,37.857121,32.469299,,
207d,Meram Kaymakamlığı,,37.857397,32.469356,,
2080a,İkra,,37.849755,32.695307,,
2080d,İkra,,37.849981,32.695382,,
208a,Meram Belediyesi,,37.8562917,32.4715333,,
208d,Meram Belediyesi,,37.8565417,32.4715583,,
2096a,Tatköy 16482. Sk,,37.942031,32.378268,,
2096d,Tatköy 16482. Sk,,37.942031,32.378368,,
2097a,Ahmet Ayhan Cd,,38.006569,32.537984,,
2097d,Ahmet Ayhan Cd,,38.006836,32.537941,,
2098a,Aksaray Yolu Dsi,,38.003599,32.787344,,
2098d,Aksaray Yolu Dsi,,38.003555,32.788583,,
2099d,Sakyatan İlk Giriş,,37.84036,32.775993,,
209a,Meram Sanayi,,37.8546583,32.4677583,,
209d,Meram Sanayi,,37.8546083,32.4673417,,
2100a,Meram Son Durak,,37.837543,32.41751,,
2100d,Meram Son Durak,,37.837605,32.41736,,
2101a,Karatay Hali,,37.8368416,32.5267083,,
2101d,Karatay Hali,,37.83661,32.52692,,
2102a,Kanaatkar,,37.835875,32.4170417,,
2102d,Kanaatkar,,37.83595,32.41715,,
2103a,Mavili,,37.861075,32.482825,,
2103d,Mavili,,37.861185,32.482825,,
2105a,Ünvan,,37.8560667,32.4038667,,
2106a,Akdağ,,37.856398,32.40028,,
2107a,Tansu,,37.856202,32.397399,,
2108a,Yeşil Dere 1,,37.856379,32.393479,,
2109a,Saraykent,,37.912217,32.485253,,
2109d,Saraykent,,37.912255,32.485601,,
210a,Gediz,,37.8530917,32.464575,,
210d,Gediz,,37.8532083,32.4643416,,
2110a,Gaziveren,,37.914498,32.484596,,
2110d,Gaziveren,,37.914573,32.484404,,
2111a,Selçuklu İtfaiye,,37.916822,32.489168,,
2111d,Selçuklu İtfaiye,,37.916875,32.489469,,
2112a,Beşyol,,37.877975,32.49416,,
2112d,Beşyol,,37.87945,32.495149,,
2113a,Pelitözü,,37.856876,32.540093,,
2113d,Pelitözü,,37.8570583,32.54,,
2114a,Ahmet Keleşoğlu Kültür Merkezi,,37.884456,32.46858,,
2114d,Ahmet Keleşoğlu Kültür Merkezi,,37.8842166,32.46837,,
2115a,Erbeyli,,37.904225,32.46032,,
2115d,Erbeyli,,37.9042417,32.46041,,
2116a,Baydar,,37.9248833,32.45012,,
2116d,Baydar,,37.9248167,32.45017,,
2117a,İlham,,37.9250834,32.44662,,
2117d,İlham,,37.9250333,32.44658,,
2118a,Sille Şehir,,37.925925,32.4426,,
2118d,Sille Şehir,,37.925875,32.44257,,
2119a,Tutkun 2,,37.927175,32.43912,,
2119d,Tutkun 2,,37.92715,32.43913,,
211a,Tren Yolu,,37.846631,32.481717,,
211d,Tren Yolu,,37.846701,32.481819,,
2120a,Dönüm,,37.9283417,32.43447,,
2120d,Dönüm,,37.92825,32.4345,,
2121a,Baldağı,,37.808784,32.548804,,
2121d,Baldağı,,37.808803,32.548713,,
2122a,Alarm,,37.811772,32.54676,,
2122d,Alarm,,37.811787,32.546653,,
2124a,Karamevlüt,,37.8973083,32.47599,,
2124d,Karamevlüt,,37.897471,32.476284,,
2125a,80 Binde Devri Alem,,37.8293,32.41287,,
2125d,80 Binde Devri Alem,,37.82934,32.41274,,
2126a,Ardıçlı Merkez,,38.0151917,32.43496,,
2126d,Ardıçlı Merkez,,38.0151583,32.43506,,
2127a,Yükselen Yolu 2,,38.0247417,32.36615,,
2127d,Yükselen Yolu 2,,38.0247417,32.36611,,
2128a,Çardak,,38.034575,32.36183,,
2128d,Çardak,,38.0345334,32.36183,,
2129a,Yükselen Yolu 1,,38.0371417,32.35791,,
2129d,Yükselen Yolu 1,,38.0371083,32.35791,,
212a,Türkoğlu,,37.850525,32.461391,,
212d,Türkoğlu,,37.850587,32.461101,,
2130a,Lavanta,,38.058575,32.33371,,
2130d,Lavanta,,38.0585917,32.33369,,
2131a,Karanfil,,38.06509,32.33334,,
2131d,Karanfil,,38.0651,32.33351,,
2132a,Hasandağı,,37.84005,32.51282,,
2132d,Hasandağı,,37.84,32.51282,,
2133a,Yanıklar,,37.8251584,32.56918,,
2133d,Yanıklar,,37.8252167,32.56937,,
2134a,Hasan Ali Yücel Ortaokulu,,37.821632,32.59918,,
2134d,Hasan Ali Yücel Ortaokulu,,37.821601,32.599226,,
2135a,Ekinköy,,37.8077917,32.64119,,
2135d,Ekinköy,,37.8078917,32.64074,,
2136a,Çancı,,37.8413583,32.53436,,
2136d,Çancı,,37.841389,32.534261,,
2137a,İbrahim Karaoğlu Ortaokulu,,37.8404333,32.53507,,
2137d,İbrahim Karaoğlu Ortaokulu,,37.84021,32.53508,,
2138a,Hacılar Cami,,37.8386917,32.53099,,
2138d,Hacılar Cami,,37.83856,32.53121,,
2139a,Oran,,37.8674,32.6107167,,
2139d,Oran,,37.8674,32.6108167,,
213a,Arifin Cami,,37.8489417,32.458225,,
213d,Arifin Cami,,37.8491,32.4581667,,
2140a,Şen,,37.8632584,32.63456,,
2140d,Şen,,37.8632167,32.63457,,
2141a,Uğur,,37.8607417,32.63861,,
2141d,Uğur,,37.860725,32.63873,,
2142a,Tanzimat,,37.8604917,32.64156,,
2142d,Tanzimat,,37.8605333,32.64162,,
2143a,Çarşamba Çayı 1,,37.84862,32.705032,,
2143d,Çarşamba Çayı 1,,37.848864,32.70507,,
2144a,Sarıcalar,,37.8593583,32.48461,,
2144d,Sarıcalar,,37.8592083,32.48489,,
2145a,Sözbir,,37.84855,32.50633,,
2145d,Sözbir,,37.8487834,32.50622,,
2146a,Dalgıç,,37.7639334,32.4123,,
2146d,Dalgıç,,37.7638333,32.41228,,
2147a,Torbalı,,37.87915,32.52757,,
2147d,Torbalı,,37.8789166,32.52723,,
2148a,Rüzgarlı,,38.06641,32.33135,,
2148d,Rüzgarlı,,38.06636,32.33128,,
2149a,Gürmenekşe,,37.7626,32.40727,,
2149d,Gürmenekşe,,37.7624666,32.40736,,
214a,Erganiler,,37.846798,32.456852,,
214d,Erganiler,,37.846964,32.456627,,
2150a,Memleket,,37.7524584,32.39819,,
2150d,Memleket,,37.7525083,32.39819,,
2151a,17331. Sk,,37.75135,32.4031,,
2151d,17331. Sk,,37.7514166,32.403,,
2152a,Bilecik,,38.06199,32.33144,,
2152d,Bilecik,,38.0619,32.3314,,
2153a,Alakova Son Durak,,37.773025,32.5015917,,
2153d,Alakova Son Durak,,37.773175,32.5014917,,
2154a,Poyrazoğlu,,37.80035,32.4907667,,
2154d,Poyrazoğlu,,37.80035,32.4907083,,
2155a,Akçaköşk Şehitler Cami,,37.7927334,32.4883917,,
2155d,Akçaköşk Şehitler Cami,,37.7926667,32.4883334,,
2156a,İğdere,,37.7961833,32.489175,,
2156d,İğdere,,37.7962834,32.489175,,
2157a,Ketenli,,37.8144434,32.4976917,,
2157d,Ketenli,,37.8144345,32.497525,,
2158a,Ülfet,,37.8274583,32.4871167,,
2158d,Ülfet,,37.8274167,32.4870167,,
2159a,Cengiz Bilge,,37.70684,32.568063,,
2159d,Cengiz Bilge,,37.706647,32.567823,,
215a,Lalebahçe Polis Merkezi,,37.8430083,32.455115,,
215d,Lalebahçe Polis Merkezi,,37.8429417,32.4549083,,
2160a,Yolağzı,,37.7599833,32.538525,,
2160d,Yolağzı,,37.7598917,32.538225,,
2161a,Aslım Cami,,37.712304,32.557607,,
2161d,Aslım Cami,,37.712297,32.557516,,
2162a,Bulgurlu 1,,37.71037,32.55537,,
2162d,Bulgurlu 1,,37.71046,32.55528,,
2163a,17560. Sk,,37.708406,32.556329,,
2163d,17560. Sk,,37.7083083,32.5560417,,
2164a,Kaşınhanı Mezarlığı,,37.706881,32.560223,,
2164d,Kaşınhanı Mezarlığı,,37.7067417,32.55996,,
2165a,Han Cami,,37.704666,32.562714,,
2165d,Han Cami,,37.704566,32.562768,,
2166a,Hara,,37.696245,32.583539,,
2166d,Hara,,37.696385,32.583625,,
2167a,Uzun Kavak,,37.7901084,32.5278917,,
2167d,Uzun Kavak,,37.7902083,32.5278917,,
2168a,Talha,,37.79545,32.535559,,
2168d,Talha,,37.79559,32.535559,,
2169a,Bozdağlar,,37.8190017,32.5267167,,
2169d,Bozdağlar,,37.8190717,32.5267167,,
216a,Cankardeşler,,37.8386,32.4548666,,
216d,Cankardeşler,,37.838625,32.4546583,,
2170a,Bolayır,,37.858877,32.498861,,
2170d,Bolayır,,37.858895,32.498797,,
2171a,Camgöz,,37.7997333,32.5340834,,
2171d,Camgöz,,37.7997834,32.5341167,,
2172a,Olimpiyat Parkı,,37.8077083,32.5402917,,
2172d,Olimpiyat Parkı,,37.80785,32.5401583,,
2173a,Kamil Yaylalı,,37.808161,32.544013,,
2173d,Kamil Yaylalı,,37.808256,32.543987,,
2174a,Gökpınar,,37.74533,32.52952,,
2174d,Gökpınar,,37.74523,32.52937,,
2175d,Aktar,,37.823319,32.524209,,
2176a,17174. Sk,,37.7370417,32.4663917,,
2177a,Beşatlı,,37.8281667,32.5011167,,
2177d,Beşatlı,,37.8284,32.5015667,,
2178a,Şanlı,,37.8372167,32.50485,,
2178d,Şanlı,,37.8371333,32.5047833,,
2179a,Bademli,,37.857425,32.5002583,,
2179d,Bademli,,37.857325,32.50025,,
217a,Süslü,,37.8352917,32.4532583,,
217d,Süslü,,37.8354083,32.4531083,,
2180a,Konuluk,,37.855325,32.5017917,,
2180d,Konuluk,,37.855325,32.5018917,,
2181a,Karaoğlan,,37.854101,32.503008,,
2181d,Karaoğlan,,37.853976,32.502987,,
2182a,Zebercet,,37.8510583,32.504275,,
2182d,Zebercet,,37.8510916,32.504175,,
2183a,Kalenderhane,,37.6720583,32.5936583,,
2183d,Kalenderhane,,37.6719833,32.594,,
2184a,Çardak Son Durak,,37.6502715888827,32.5562340952456,,
2185a,28691. Sk,,37.7132917,32.528675,,
2185d,28691. Sk,,37.713325,32.5286083,,
2186a,15574. Sk,,37.766791,32.51936,,
2186d,15574. Sk,,37.7667167,32.519225,,
2188a,Tablo,,37.780805,32.517497,,
2188d,Tablo,,37.780977,32.517529,,
2189a,Aybahçe Cami,,37.780807,32.514665,,
2189d,Aybahçe Cami,,37.780754,32.514584,,
218a,Harmancık Mezarlığı,,37.8329583,32.4508333,,
218d,Harmancık Mezarlığı,,37.833025,32.4505917,,
2190a,Mengene,,37.8533833,32.5399583,,
2190d,Mengene,,37.8533583,32.5398333,,
2191a,Tren Garı,,37.866455,32.476878,,
2192a,Kaşınhanı Kantar,,37.706864,32.569854,,
2193a,17557. Sk,,37.7136,32.55516,,
2193d,17557. Sk,,37.71352,32.55527,,
2194a,17111. Sk,,37.71146,32.5532,,
2194d,17111. Sk,,37.71156,32.55327,,
2195d,Mahir,,37.87435,32.5418167,,
2196a,Tezerler,,37.815454,32.543525,,
2196d,Tezerler,,37.815414,32.543439,,
2197a,Eski Yıkama,,37.8762246,32.501009,,
2198a,Ahi Evran Mesleki Eğitim Merkezi,,37.926467,32.529068,,
2198d,Ahi Evran Mesleki Eğitim Merkezi,,37.926201,32.528134,,
2199a,14311. Sk,,37.9696083,32.683675,,
2199d,14311. Sk,,37.9697083,32.683675,,
219a,Harmancık Kuba Cami,,37.8298083,32.447225,,
219d,Harmancık Kuba Cami,,37.8301167,32.4471833,,
21a,Mevlana,,37.870236,32.505475,,
2200a,Zencirli 1,,37.9990833,32.8647666,,
2200d,Zencirli 1,,37.9991833,32.8647666,,
2201a,Yeşil Dere 2,,37.854858,32.38994,,
2202a,Akil,,38.029299,32.492063,,
2202d,Akil,,38.029252,32.492268,,
2203a,Kabakcı,,38.02467,32.487923,,
2203d,Kabakcı,,38.024618,32.48781,,
2204a,Özek,,38.022198,32.493738,,
2204d,Özek,,38.022129,32.493674,,
2205a,3. Ana Jet Üssü,,37.964125,32.568325,,
2205d,3. Ana Jet Üssü,,37.964375,32.568125,,
2206a,16724. Sk,,38.0056917,32.6117834,,
2206d,16724. Sk,,38.006075,32.6114917,,
2208a,Selçuklu Bel. Nikah Salonu,,37.945857,32.502687,,
2209a,Genç Değirmen,,38.0092917,32.6159917,,
2209d,Genç Değirmen,,38.0095917,32.6156083,,
220a,Gülyazı,,37.826331,32.445738,,
220d,Gülyazı,,37.826719,32.445679,,
2210a,Ankara,,38.013875,32.62135,,
2210d,Ankara,,38.0143583,32.621175,,
2211a,Fayda Koleji,,38.017075,32.6250583,,
2211d,Fayda Koleji,,38.0174417,32.6247917,,
2212a,Karayolları 3. Bölge,,38.036825,32.6110917,,
2212d,Karayolları 3. Bölge,,38.0369083,32.6109416,,
2213a,Selçuklu Hobi Bahçeleri,,38.007947,32.614358,,
2213d,Selçuklu Hobi Bahçeleri,,38.008245,32.614122,,
2214a,Fadıl,,37.9559834,32.494475,,
2214d,Fadıl,,37.9560333,32.4945917,,
2215a,Ağaçeri,,37.87219,32.514676,,
2215d,Ağaçeri,,37.871725,32.514869,,
2216a,Karatay Üniversitesi,,37.864163,32.536082,,
2216d,Karatay Üniversitesi,,37.864232,32.53583,,
2217a,Hacı Çayı,,37.7629917,32.4051916,,
2217d,Hacı Çayı,,37.762925,32.4053083,,
2218a,Atalı,,37.8053417,32.4127084,,
2218d,Atalı,,37.8052417,32.412775,,
2219a,Atalı 2,,37.804389,32.415112,,
2219d,Atalı 2,,37.804468,32.415112,,
221a,Baki,,37.757451,32.369633,,
2220a,Zümrüttaşı,,37.78126,32.407205,,
2220d,Zümrüttaşı,,37.781164,32.4072,,
2221a,Sızıntı,,37.775289,32.406991,,
2221d,Sızıntı,,37.775249,32.407076,,
2222a,Ömerul Faruk Camii,,37.772731,32.406577,,
2222d,Ömerul Faruk Camii,,37.772729,32.406674,,
2223a,Beybes,,37.76892,32.404174,,
2223d,Beybes,,37.768948,32.404255,,
2224a,Hatıp Mezarlığı,,37.7668083,32.404625,,
2224d,Hatıp Mezarlığı,,37.7668167,32.4046833,,
2225a,Hatıp Cami,,37.76595,32.4063416,,
2225d,Hatıp Cami,,37.7659916,32.4063917,,
2226a,Akıncı,,38.019482,32.493357,,
2226d,Akıncı,,38.019549,32.493432,,
2227a,Ankara Yolu,,38.0247583,32.6339417,,
2227d,Ankara Yolu,,38.0251417,32.6337083,,
2228a,Menekşe,,38.029403,32.642671,,
2228d,Menekşe,,38.029452,32.642762,,
2229a,Koca Yusuf 2,,38.0220667,32.6593834,,
2229d,Koca Yusuf 2,,38.0221583,32.6596167,,
222a,İyican,,37.822075,32.443375,,
222d,İyican,,37.8222,32.443225,,
2230a,16906. Sk,,38.0242917,32.67745,,
2230d,16906. Sk,,38.0243333,32.6775166,,
2231a,5. Sk,,37.9653833,32.62335,,
2231d,5. Sk,,37.965575,32.623775,,
2232a,Aliya İzzet Begoviç,,37.9994917,32.577425,,
2232d,Aliya İzzet Begoviç,,37.9997334,32.5776917,,
2233a,Mekke,,37.98735,32.5230667,,
2233d,Mekke,,37.9872167,32.5232833,,
2234a,775881. Sk,,37.9030917,32.3995083,,
2234d,775881. Sk,,37.903075,32.3994167,,
2235a,16376. Sk,,37.914875,32.3715583,,
2235d,16376. Sk,,37.914975,32.3715083,,
2236a,Hz. Ali Cami,,37.9161583,32.3688583,,
2236d,Hz. Ali Cami,,37.9161583,32.368725,,
2237a,16378. Sk,,37.9185583,32.3667083,,
2237d,16378. Sk,,37.9185083,32.3667083,,
2238a,16373. Sk,,37.921475,32.365475,,
2238d,16373. Sk,,37.921475,32.365525,,
2239a,16370. Sk,,37.9254416,32.3632333,,
2239d,16370. Sk,,37.9255083,32.3632083,,
223a,Karahüyük Mezarlığı,,37.820375,32.4415083,,
223d,Karahüyük Mezarlığı,,37.8203334,32.4411583,,
2240a,16353. Sk,,37.9280416,32.3631917,,
2240d,16353. Sk,,37.9283167,32.3630583,,
2241a,Sulutas Merkez,,37.930066,32.361939,,
2241d,Sulutas Merkez,,37.93005,32.361842,,
2242a,Saray,,37.929834,32.359037,,
2242d,Saray,,37.929758,32.359101,,
2243a,Beyazgül,,37.9398666,32.4996166,,
2243d,Beyazgül,,37.9398833,32.49975,,
2244a,Başkale,,37.9365367,32.4989567,,
2244d,Başkale,,37.9365333,32.499,,
2245a,Sonbirlik Cami,,37.9078083,32.5420417,,
2246a,Makparsan,,37.9085583,32.543325,,
2247a,10618. Sk,,37.9065584,32.546575,,
2248a,Sarmaşık,,37.9027583,32.5457417,,
2249a,Battalgazi,,37.8998583,32.5445583,,
224a,Taşlıpınar,,37.8176583,32.4384917,,
224d,Taşlıpınar,,37.8177583,32.438375,,
2250a,Gürhanlar,,37.9003166,32.5430583,,
2251a,Meram,,37.9035334,32.5443667,,
2252a,Özkafa,,37.9057583,32.5431917,,
2253a,10632. Sk,,37.9231333,32.5305333,,
2254a,Eren,,37.905863,32.449268,,
2254d,Eren,,37.905853,32.449359,,
2255a,Oğuzyiğit,,37.9546917,32.3698083,,
2255d,Oğuzyiğit,,37.9547167,32.3696917,,
2256a,16457. Sk,,37.957218,32.368679,,
2256d,16457. Sk,,37.9571,32.36867,,
2257a,Mimarsinan,,37.9190583,32.4406833,,
2257d,Mimarsinan,,37.9190083,32.4406,,
2258a,Aslan,,37.901821,32.448329,,
2258d,Aslan,,37.901808,32.448515,,
2259a,Türk Telekom Lisesi,,37.9541583,32.490575,,
2259d,Türk Telekom Lisesi,,37.9541083,32.490725,,
225a,Dönertaş,,37.815725,32.436175,,
225d,Dönertaş,,37.815725,32.435925,,
2260a,Papatya,,37.9405,32.4929667,,
2260d,Papatya,,37.9404833,32.4931834,,
2261a,Eyüp Sultan,,37.9370166,32.4975834,,
2261d,Eyüp Sultan,,37.9372583,32.4976083,,
2262a,Özlem,,37.9369667,32.4997833,,
2262d,Özlem,,37.9372666,32.4998166,,
2263a,Cahit Zarifoğlu İlkokulu,,37.9560417,32.5075167,,
2263d,Cahit Zarifoğlu İlkokulu,,37.9559,32.5075333,,
2264a,Öztekinler,,37.95605,32.50385,,
2264d,Öztekinler,,37.9559167,32.5039334,,
2265a,Saray Bosna,,37.9556084,32.5000334,,
2265d,Saray Bosna,,37.955525,32.5002167,,
2266a,Yeni Yapı,,37.97085,32.5095667,,
2266d,Yeni Yapı,,37.9708,32.5093334,,
2267a,Şafak,,37.973075,32.51095,,
2267d,Şafak,,37.9732666,32.5109334,,
2268a,Sulutas Son Durak,,37.9282833,32.3545167,,
2268d,Sulutas Son Durak,,37.928344,32.354541,,
2269a,Maliye Lojmanları,,37.9768083,32.5021417,,
2269d,Maliye Lojmanları,,37.9767,32.5020167,,
226a,Antalya Kozağaç Kavşağı,,37.8126333,32.4334,,
226d,Antalya Kozağaç Kavşağı,,37.8129417,32.433225,,
2270a,Bardakcı,,37.975875,32.4984583,,
2270d,Bardakcı,,37.9758417,32.4984583,,
2271a,Turgut Özal,,37.987925,32.4885167,,
2271d,Turgut Özal,,37.9877417,32.488675,,
2272a,Ali Demirtaş,,37.987125,32.4865416,,
2272d,Ali Demirtaş,,37.9869251,32.4867153,,
2273a,Yazır Beyhekim Hastanesi,,37.989238,32.482453,,
2273d,Yazır Beyhekim Hastanesi,,37.9887334,32.48225,,
2274a,Yazır Numune Hastanesi,,37.9922417,32.4878083,,
2274d,Yazır Numune Hastanesi,,37.9923417,32.487925,,
2276a,Kırankaya,,38.011901,32.41398,,
2276d,Kırankaya,,38.012063,32.414049,,
2277a,Gülpazarı,,37.974708,32.513742,,
2277d,Gülpazarı,,37.974595,32.513694,,
2278a,Demre,,37.925511,32.462655,,
2278d,Demre,,37.925606,32.462629,,
2279a,Tatköy 1657. Sk,,37.960156,32.37246,,
227a,Kozağaç Parkı,,37.8062417,32.4311416,,
227d,Kozağaç Parkı,,37.8063583,32.431025,,
2280a,Park Bahçeler Daire Başkanlığı,,37.902911,32.498769,,
2280d,Park Bahçeler Daire Başkanlığı,,37.903429,32.496973,,
2281a,Site,,37.977445,32.506474,,
2281d,Site,,37.977388,32.506549,,
2282a,Güvence,,37.885775,32.4880417,,
2282d,Güvence,,37.8861083,32.488625,,
2286a,Sultan,,37.95377,32.5088,,
2286d,Sultan,,37.95382,32.50862,,
2287a,Güldeste,,37.951639,32.452196,,
2287d,Güldeste,,37.951654,32.452298,,
2288a,Yörem,,37.9372834,32.4789167,,
2289a,Gökçe,,37.9356833,32.4763333,,
2289d,Gökçe,,37.9355167,32.4763333,,
228a,Vakfe,,37.8030583,32.429175,,
228d,Vakfe,,37.803425,32.4292583,,
2290a,Güray,,37.934284,32.477965,,
2290d,Güray,,37.934309,32.478126,,
2291a,Ammar,,37.9337167,32.4882417,,
2291d,Ammar,,37.9337333,32.48835,,
2292a,Kocayayla,,37.9118417,32.4824083,,
2292d,Kocayayla,,37.911725,32.4825166,,
2293a,Hoca Ahmet Yesevi Ortaokulu,,37.954975,32.4914084,,
2293d,Hoca Ahmet Yesevi Ortaokulu,,37.955,32.4913384,,
2294a,Sayılan,,37.9559167,32.49825,,
2294d,Sayılan,,37.9561067,32.49825,,
2295a,Şehit Yusuf Ceran,,37.950734,32.498931,,
2295d,Şehit Yusuf Ceran,,37.950707,32.499141,,
2296a,Paçalı,,38.014,32.5241667,,
2297a,Meşrep,,37.997375,32.585175,,
2297d,Meşrep,,37.997293,32.584932,,
2298a,Taçmahal,,37.95115,32.5267583,,
2299a,Güzelkent,,37.9493667,32.5264833,,
229a,Ashap,,37.798275,32.4257583,,
229d,Ashap,,37.7983334,32.42565,,
22a,Ferhuniye,,37.87668,32.490627,,
2300a,Zümrüt,,37.957425,32.5218917,,
2300d,Zümrüt,,37.9575417,32.522125,,
2301a,Kılıçarslan Gençlik Merkezi,,38.0096367,32.5202667,,
2302a,Ürgüp,,37.963214,32.468793,,
2302d,Ürgüp,,37.963222,32.468623,,
2303a,Karadeniz,,37.963226,32.46615,,
2303d,Karadeniz,,37.963326,32.46615,,
2304a,Kardeşcanı,,37.964966,32.4621167,,
2304d,Kardeşcanı,,37.965066,32.462116,,
2305a,Cakabey Cd,,37.966742,32.458806,,
2305d,Cakabey Cd,,37.966735,32.458875,,
2306a,Şehit Erol Tümtürk,,37.962666,32.456999,,
2306d,Şehit Erol Tümtürk,,37.962666,32.4569,,
2307a,Baharistan Cd,,37.958686,32.455326,,
2307d,Baharistan Cd,,37.958786,32.455326,,
2308a,Ceylan,,37.854195,32.538129,,
2308d,Ceylan,,37.854257,32.538032,,
2309a,Şehit Mehmet Düzenli,,37.959316,32.451011,,
2309d,Şehit Mehmet Düzenli,,37.959326,32.450893,,
230a,Mansuroğlu,,37.79505,32.4245333,,
230d,Mansuroğlu,,37.7949583,32.4243583,,
2310a,Yeşil Bayır,,37.960168,32.453113,,
2310d,Yeşil Bayır,,37.960255,32.453087,,
2311a,Eraslan,,37.9142667,32.4784917,,
2311d,Eraslan,,37.9144667,32.4785667,,
2312a,Ercan,,37.95825,32.4939833,,
2312d,Ercan,,37.9583833,32.4938667,,
2313a,Türkerler,,37.9591,32.5041917,,
2313d,Türkerler,,37.959025,32.5043083,,
2314a,Şehit Ali Vasfi Güney,,37.9568583,32.5028083,,
2314d,Şehit Ali Vasfi Güney,,37.956675,32.5029333,,
2315a,Zaviye,,37.9357667,32.4929667,,
2315d,Zaviye,,37.9357333,32.49315,,
2316a,Afşin,,37.9271583,32.4950084,,
2316d,Afşin,,37.927325,32.4950917,,
2317a,Buhara Parkı,,37.9243417,32.493125,,
2317d,Buhara Parkı,,37.9242917,32.4933917,,
2318a,Demirhan,,37.9094333,32.482875,,
2318d,Demirhan,,37.9096083,32.4830416,,
2319a,Narlıbağ,,37.906012,32.484319,,
2319d,Narlıbağ,,37.905904,32.484447,,
231a,Kolçak,,37.7906583,32.422875,,
231d,Kolçak,,37.79075,32.422775,,
2320a,Tekyaprak,,37.9106833,32.47205,,
2320d,Tekyaprak,,37.9105834,32.4720167,,
2321a,Fahri Efendi,,37.91075,32.468625,,
2321d,Fahri Efendi,,37.910675,32.4685,,
2322a,Cüretkar,,37.9099417,32.463925,,
2322d,Cüretkar,,37.9098917,32.46395,,
2323a,Barış,,37.906975,32.460525,,
2323d,Barış,,37.9069417,32.4605833,,
2325a,Ortakonak 4,,37.980089,32.716898,,
2325d,Ortakonak 4,,37.980394,32.716691,,
2326a,Çanakpınar Yolu 1,,37.7782583,32.5319417,,
2326d,Çanakpınar Yolu 1,,37.7782833,32.531825,,
2327a,Medaş Bölge Müdürlüğü,,37.953525,32.513625,,
2327d,Medaş Bölge Müdürlüğü,,37.9538917,32.5132917,,
2328a,İyibildiren,,37.9625,32.514805,,
2328d,İyibildiren,,37.962502,32.514504,,
2329a,Yeni İstanbul,,37.96545,32.5152167,,
2329d,Yeni İstanbul,,37.9652833,32.5148,,
232a,Üresin,,37.7865583,32.4212083,,
232d,Üresin,,37.7866334,32.4211,,
2330a,Yazır,,37.9718167,32.5160834,,
2330d,Yazır,,37.9718334,32.5156834,,
2331a,Vakit,,37.97635,32.5166917,,
2331d,Vakit,,37.9766083,32.5163083,,
2332a,Öztekinler Kız Meslek Lisesi,,37.9819917,32.5174584,,
2332d,Öztekinler Kız Meslek Lisesi,,37.9821334,32.5170333,,
2333a,Ladikli Ahmet Hüdai Parkı,,37.9892833,32.5184167,,
2333d,Ladikli Ahmet Hüdai Parkı,,37.9895,32.5180167,,
2334a,Coşandere,,37.9954167,32.5192833,,
2334d,Coşandere,,37.9956334,32.518825,,
2335a,Otağ,,38.0027334,32.5201833,,
2335d,Otağ,,38.0026833,32.5198167,,
2336a,Osmanlı,,38.0092083,32.519375,,
2336d,Osmanlı,,38.00913,32.51896,,
2337a,1. Mahmud,,37.957598,32.483728,,
2337d,1. Mahmud,,37.957689,32.483546,,
2338a,3. Ahmed,,37.954013,32.481677,,
2338d,3. Ahmed,,37.954013,32.481477,,
2339a,2. Mustafa,,37.951357,32.480117,,
2339d,2. Mustafa,,37.951357,32.479917,,
233a,Tabaka,,37.7838833,32.4201083,,
233d,Tabaka,,37.7838917,32.419975,,
2341a,Karatepe 2,,37.7924967,32.476575,,
2341d,Karatepe 2,,37.7923567,32.476525,,
2342a,Kayahan,,37.7954233,32.4739416,,
2342d,Kayahan,,37.7953233,32.4739016,,
2343a,Karatepe 3,,37.7984866,32.4702917,,
2343d,Karatepe 3,,37.7983866,32.4702517,,
2344a,Nilüfer,,37.800825,32.4676417,,
2344d,Nilüfer,,37.800725,32.4676017,,
2345a,Karatepe 5,,37.8038333,32.46455,,
2345d,Karatepe 5,,37.8036533,32.4645,,
2346a,Dama Kuyusu,,37.8068583,32.4609917,,
2346d,Dama Kuyusu,,37.8067583,32.4609517,,
2347a,Ekin,,37.8096,32.4576417,,
2347d,Ekin,,37.8095,32.4576017,,
2348a,Dava,,37.8076667,32.4548833,,
2348d,Dava,,37.8075067,32.4549533,,
2349a,Akasma 1,,37.806825,32.45255,,
2349d,Akasma 1,,37.806725,32.45255,,
234a,Dağıstan,,37.7812667,32.419,,
234d,Dağıstan,,37.78125,32.4188666,,
2350a,Ulema,,37.80967,32.4498166,,
2350d,Ulema,,37.80957,32.4497766,,
2351a,Akasma 2,,37.812655,32.446175,,
2351d,Akasma 2,,37.812505,32.446105,,
2352a,Şenkan,,37.8146,32.4470083,,
2352d,Şenkan,,37.81497,32.4468083,,
2353a,Sulu Bahçe,,37.8169583,32.451425,,
2353d,Sulu Bahçe,,37.8172083,32.451335,,
2354a,Güllütaş,,37.8184667,32.4544667,,
2354d,Güllütaş,,37.8187397,32.4544367,,
2355a,Tatköy Dere,,37.952615,32.36046,,
2356a,16462. Sk,,37.951278,32.357434,,
2357a,Tatköy Son Durak,,37.9483917,32.3550583,,
2358a,Habur,,37.822573,32.462035,,
2358d,Habur,,37.822255,32.462228,,
2359a,Sarıkavak,,37.805088,32.41111,,
2359d,Sarıkavak,,37.805073,32.411041,,
235a,Hutbe,,37.7784917,32.417875,,
235d,Hutbe,,37.7784667,32.4177166,,
2360a,Dereboyu 1,,37.806025,32.40831,,
2360d,Dereboyu 1,,37.806005,32.408375,,
2361a,Remzi,,37.782299,32.415332,,
2361d,Remzi,,37.782182,32.415322,,
2362d,Dereboyu 2,,37.807334,32.407004,,
2363a,Şemsi Efendi,,37.948453,32.486953,,
2363d,Şemsi Efendi,,37.948641,32.486953,,
2364a,Belkıs,,37.951919,32.483587,,
2364d,Belkıs,,37.951919,32.483487,,
2365a,İmren,,37.955622,32.483654,,
2365d,İmren,,37.95565,32.483761,,
2366a,Kumaşçı,,37.956795,32.479732,,
2366d,Kumaşçı,,37.956966,32.479802,,
2367a,Şehit Erdoğan Balcı Cd 1,,37.737668,32.406122,,
2367d,Şehit Erdoğan Balcı Cd 1,,37.737595,32.406087,,
2368a,Şehit Erdoğan Balcı Cd 2,,37.736124,32.40343,,
2368d,Şehit Erdoğan Balcı Cd 2,,37.736079,32.403413,,
2369a,Gödene Toki Çocuk Parkı,,37.737844,32.402674,,
2369d,Gödene Toki Çocuk Parkı,,37.737844,32.40258,,
236a,Gayret,,37.7757,32.416758,,
236d,Gayret,,37.775732,32.416594,,
2370a,Gödene Toki Emekliler Konağı 1,,37.73742,32.399032,,
2370d,Gödene Toki Emekliler Konağı 1,,37.73741,32.398948,,
2371a,Gödene Toki Emekliler Konağı 2,,37.738902,32.396707,,
2371d,Gödene Toki Emekliler Konağı 2,,37.738889,32.396531,,
2372a,Hanedan 2,,37.740633,32.396929,,
2372d,Hanedan 2,,37.740857,32.396761,,
2374a,17292. Sk,,37.743303,32.409602,,
2374d,17292. Sk,,37.743403,32.409602,,
2375a,Serkan Cd,,37.742668,32.412583,,
2375d,Serkan Cd,,37.742668,32.412683,,
2376a,Gödene 17320. Sk,,37.74537,32.411201,,
2376d,Gödene 17320. Sk,,37.745316,32.411115,,
2377a,Gödene 17296. Sk,,37.747783,32.409259,,
2377d,Gödene 17296. Sk,,37.747717,32.409168,,
2378a,Gödene Hareket Merkezi,,37.740348,32.412698,,
2378d,Gödene Hareket Merkezi,,37.740355,32.412602,,
237a,İrfanlı,,37.771276,32.415166,,
237d,İrfanlı,,37.771198,32.414989,,
2380a,Yağcı,,37.785544,32.534519,,
2380d,Yağcı,,37.785618,32.534666,,
2381a,Balcı,,37.78148,32.529669,,
2383a,13187. Sk,,37.897411,32.403278,,
2383d,13187. Sk,,37.897432,32.403187,,
2384a,Poligon Yolu,,37.864946,32.621397,,
2384d,Poligon Yolu,,37.864946,32.621697,,
2385a,Tekbaş,,37.956639,32.452196,,
2385d,Tekbaş,,37.956539,32.451996,,
2387a,17116. Sk,,37.744398,32.498524,,
2387d,17116. Sk,,37.744434,32.498663,,
2388a,Erçin,,37.776141,32.501599,,
2388d,Erçin,,37.776241,32.501299,,
2389d,Güneydere Cd,,37.725683,32.334397,,
238a,Maraş,,37.7662917,32.4114916,,
2390a,Yolbaşı,,37.782416,32.50482,,
2390d,Yolbaşı,,37.782502,32.504408,,
2391a,Anıl,,37.806099,32.53793,,
2391d,Anıl,,37.805996,32.537781,,
2392a,Sarı Hoca,,37.808375,32.533193,,
2392d,Sarı Hoca,,37.808214,32.533199,,
2393a,Yeni Çeşme,,37.808302,32.529626,,
2393d,Yeni Çeşme,,37.808573,32.529572,,
2394a,Zerafet,,37.809568,32.525396,,
2394d,Zerafet,,37.809737,32.525475,,
2395a,Ağartan,,37.81045,32.521656,,
2395d,Ağartan,,37.810588,32.521686,,
2396a,Tümen,,37.795623,32.528135,,
2396d,Tümen,,37.79562,32.528081,,
2397a,Bağlarbaşı Spor Salonu,,37.953265,32.46093,,
2397d,Bağlarbaşı Spor Salonu,,37.953265,32.46073,,
2398a,Kahramanlar Cd,,37.965135,32.470506,,
2398d,Kahramanlar Cd,,37.965184,32.470489,,
2399a,Yıldırım Beyazıt Cami,,37.959307,32.507056,,
2399d,Yıldırım Beyazıt Cami,,37.959407,32.507356,,
239a,Ölçek,,37.7664083,32.4075584,,
23a,Piri Esat,,37.86709,32.5055233,,
23d,Piri Esat,,37.866895,32.505575,,
2400a,Toros,,37.957154,32.508941,,
2401a,Meftun,,37.958259,32.512383,,
2402a,Kaside,,37.856437,32.544272,,
2402d,Kaside,,37.856437,32.544372,,
2403a,Şerafettin Cami 1,,37.87205,32.49841833,,
2404a,Şahin,,37.854974,32.54748,,
2404d,Şahin,,37.854974,32.54768,,
2405a,Şerafettin Cami 2,,37.8721,32.4981833,,
2406d,Kanal,,37.852636,32.549254,,
2407a,Şerafettin Cami 3,,37.872117,32.498007,,
2408a,Şerafettin Cami 4,,37.872138,32.4977889,,
2409a,Şehir Hastanesi,,37.85987286487143,32.54977583885193,,
240a,Tazende,,37.7646084,32.4056083,,
240d,Tazende,,37.7646084,32.405675,,
2410a,Şehit Bayram Olgun,,37.855426,32.553702,,
2411d,Kayalıpark 1,,37.8719,32.4979166,,
2412d,Kayalıpark 2,,37.8718733,32.4981733,,
2413a,Şifa,,37.859473,32.553869,,
2413d,Şifa,,37.859479,32.5536,,
2414a,Alaaddin Turnike 2,,37.873295,32.494225,,
2415a,Alaaddin Turnike 1,,37.8732783,32.494155,,
2416a,Beybes Toki 1,,37.775889,32.404448,,
2416d,Beybes Toki 1,,37.775823,32.404598,,
2417a,Şehir Hastanesi İstiklal Çıkışı,,37.852963,32.553804,,
2417d,Şehir Hastanesi İstiklal Çıkışı,,37.852875,32.554065,,
2418a,Alaaddin Bulvarı,,37.87132,32.4935,,
2419a,İnceminare,,37.873775,32.490625,,
241a,Seyrantepe Kuran Kursu,,37.7609,32.40227,,
241d,Seyrantepe Kuran Kursu,,37.760775,32.40248,,
2420a,Beybes Toki 2,,37.774719,32.403772,,
2420d,Beybes Toki 2,,37.774572,32.403756,,
2421a,Beybes Toki 3,,37.77438,32.40178,,
2421d,Beybes Toki 3,,37.774252,32.401958,,
2422a,Beybes Toki 4,,37.770735,32.401535,,
2422d,Beybes Toki 4,,37.770812,32.401642,,
2423a,Beybes Toki 5,,37.77106,32.40327,,
2423d,Beybes Toki 5,,37.7710946216402,32.4031336046755,,
2424a,Kültürpark Turnike 1,,37.873814,32.489091,,
2425a,Kültürpark Turnike 2,,37.8737166,32.4889667,,
2426a,İsmail Ketenci Cd,,37.854662,32.496324,,
2426d,İsmail Ketenci Cd,,37.854829,32.496372,,
2427a,İsmail Ketenci Cd 2,,37.855067,32.501007,,
2427d,İsmail Ketenci Cd 2,,37.855222,32.500884,,
2428a,Celaleddin Karatay Cd,,37.856627,32.505395,,
2428d,Celaleddin Karatay Cd,,37.856743,32.505245,,
2429a,Gıyasettin Keyhüsrev,,37.859621,32.509241,,
2429d,Gıyasettin Keyhüsrev,,37.859674,32.509043,,
242a,17380. Sk,,37.7612583,32.3974417,,
242d,17380. Sk,,37.7612,32.3974166,,
2430a,Atabeg,,37.862899,32.511435,,
2430d,Atabeg,,37.862948,32.511269,,
2431a,İzzeddin Keykavus,,37.866309,32.512412,,
2431d,İzzeddin Keykavus,,37.86634,32.512219,,
2432a,4. Organize 1,,37.978661,32.595375,,
2433a,4. Organize 2,,37.975375,32.592183,,
2434a,4. Organize 3,,37.972318,32.589209,,
2435a,4. Organize 4,,37.968896,32.588162,,
2436a,4. Organize 5,,37.965522,32.588619,,
2437a,4. Organize 6,,37.962274,32.590563,,
2438a,4. Organize 7,,37.96298,32.595514,,
2439a,4. Organize 8,,37.964399,32.599799,,
243a,Çayırbağı,,37.7626417,32.3918833,,
243d,Çayırbağı,,37.7625583,32.3919333,,
2440a,4. Organize 9,,37.965784,32.603885,,
2441a,Bekdemir,,38.00541490597971,32.5454843044281,,
2441d,Bekdemir,,38.005672,32.545623,,
2442a,Doğanbeyli,,37.853844,32.478254,,
2445a,Abdullah Ulubay,,37.981767,32.499468,,
2445d,Abdullah Ulubay,,37.981591,32.499468,,
2446a,Ulubay,,37.98165,32.5034,,
2446d,Ulubay,,37.98155,32.50353,,
2447a,Atatürk Mta Lisesi,,37.9815417,32.507725,,
2447d,Atatürk Mta Lisesi,,37.9816,32.5079834,,
2448a,Özbal,,37.981475,32.5110417,,
2448d,Özbal,,37.9815667,32.5113,,
2449a,Hoşsohbet,,37.964025,32.4899583,,
2449d,Hoşsohbet,,37.964125,32.4901583,,
244a,Çayırbağı Bağlarbaşı Cami,,37.763875,32.3868583,,
244d,Çayırbağı Bağlarbaşı Cami,,37.763795,32.3868783,,
2450d,Atatürk Meslek Lisesi,,37.980611,32.509363,,
2451a,Coşandere Cd,,37.994362,32.521878,,
2451d,Coşandere Cd,,37.994177,32.52176,,
2452a,Ercoşkun,,37.9551083,32.5217667,,
2453a,Fırat,,37.9943006,32.517685,,
2453d,Fırat,,37.994525,32.517729,,
2454a,Esentepe Yurdu,,37.995375,32.5116417,,
2454d,Esentepe Yurdu,,37.9956084,32.5117583,,
2455a,Demirmil,,37.99593,32.50971,,
2455d,Demirmil,,37.99624,32.50976,,
2456a,Hekimoğlu Lisesi,,37.9815417,32.515675,,
2456d,Hekimoğlu Lisesi,,37.9816,32.5157833,,
2457d,İyikan,,37.9795,32.51203,,
2458d,Haseki,,37.976495,32.512295,,
245a,17420. Sk,,37.7653417,32.382825,,
245d,17420. Sk,,37.7652916,32.38275,,
2461a,Buhari İhl,,37.960604,32.474754,,
2461d,Buhari İhl,,37.960662,32.4745528,,
2462a,Binevler,,37.9665417,32.4755333,,
2462d,Binevler,,37.966775,32.475625,,
2463a,Bağrı,,37.964043,32.474672,,
2463d,Bağrı,,37.964059,32.474479,,
2465a,Beyazıt,,37.8046583,32.530425,,
2465d,Beyazıt,,37.8048667,32.53035,,
2467a,Kamer,,38.0197333,32.5168,,
2467d,Kamer,,38.0197667,32.5164166,,
2468a,Uluslararası Mevlana Aihl,,38.0263666,32.5168,,
2468d,Uluslararası Mevlana Aihl,,38.02645,32.51645,,
2469a,Selçuklu Kültür Sitesi,,38.0342167,32.5170666,,
2469d,Selçuklu Kültür Sitesi,,38.0343833,32.5164116,,
246a,Çayırbağı Kuran Kursu,,37.766575,32.3794917,,
246d,Çayırbağı Kuran Kursu,,37.7665167,32.3794667,,
2470a,Dokuz Mahallesi Yolu,,38.047655,32.516514,,
2470d,Dokuz Mahallesi Yolu,,38.047646,32.516782,,
2471a,Dokuz Mahallesi 1,,38.053451,32.516171,,
2471d,Dokuz Mahallesi 1,,38.053459,32.516568,,
2473a,Osman Gazi,,37.887708,32.433759,,
2473d,Osman Gazi,,37.887566,32.433624,,
2474a,Orhan Gazi,,37.891104,32.435674,,
2474d,Orhan Gazi,,37.891005,32.435523,,
2475a,1. Murad,,37.894676,32.437707,,
2475d,1. Murad,,37.894568,32.437535,,
2476a,Yıldırım Bayezid,,37.897974,32.440271,,
2476d,Yıldırım Bayezid,,37.897871,32.44011,,
2477a,1. Mehmed,,37.90084,32.443511,,
2477d,1. Mehmed,,37.900732,32.443382,,
2478a,2. Murad,,37.904531,32.445597,,
2478d,2. Murad,,37.904357,32.44534,,
2479a,Fatih Sultan Mehmed,,37.907684,32.447314,,
2479d,Fatih Sultan Mehmed,,37.907572,32.447175,,
247a,Çayırbağı Cami,,37.7645083,32.375125,,
247d,Çayırbağı Cami,,37.7644417,32.375175,,
2480a,2. Bayezid,,37.910482,32.449766,,
2480d,2. Bayezid,,37.910505,32.449653,,
2481a,Yavuz Sultan Selim,,37.912462,32.452148,,
2481d,Yavuz Sultan Selim,,37.912587,32.451901,,
2482a,Kanuni Sultan Süleyman,,37.914337,32.455586,,
2482d,Kanuni Sultan Süleyman,,37.914501,32.455377,,
2483a,2. Selim,,37.915328,32.459964,,
2483d,2. Selim,,37.915462,32.459792,,
2484a,3. Murad,,37.91719,32.463327,,
2484d,3. Murad,,37.917383,32.463241,,
2485a,1. Ahmed,,37.921372,32.470365,,
2485d,1. Ahmed,,37.921505,32.470001,,
2486a,1. Mustafa,,37.925366,32.471755,,
2486d,1. Mustafa,,37.925415,32.471331,,
2487a,Genç Osman,,37.928845,32.472812,,
2487d,Genç Osman,,37.92883,32.472409,,
2488a,4. Murad,,37.931887,32.473734,,
2488d,4. Murad,,37.931935,32.47338,,
2489a,1. İbrahim,,37.934578,32.474587,,
2489d,1. İbrahim,,37.934609,32.474212,,
248a,Çayırbağı Karadiğin Yolu,,37.7612666,32.3723083,,
248d,Çayırbağı Karadiğin Yolu,,37.7612666,32.372375,,
2490a,4. Mehmed,,37.93828,32.475767,,
2490d,4. Mehmed,,37.938324,32.475403,,
2491a,2. Süleyman,,37.941698,32.476846,,
2491d,2. Süleyman,,37.941781,32.476551,,
2492a,2. Ahmed,,37.945011,32.477886,,
2492d,2. Ahmed,,37.945059,32.477527,,
2493a,3. Osman,,37.960338,32.485195,,
2493d,3. Osman,,37.960604,32.485144,,
2494a,3. Mustafa,,37.963598,32.487114,,
2494d,3. Mustafa,,37.96367,32.486915,,
2495a,Akvaryum,,37.770474,32.409646,,
2495d,Akvaryum,,37.770349,32.409726,,
2498a,Harmancık Parkı,,37.820808,32.459036,,
2498d,Harmancık Parkı,,37.820984,32.458848,,
249a,Karadiğin Deresi 1,,37.7510083,32.364525,,
249d,Karadiğin Deresi 1,,37.750975,32.3645583,,
24d,Mareşal Mustafa Kemal Ortaokulu,,37.87265,32.48525,,
2500a,Dağdere 1,,38.171125,32.4759583,,
2501a,Dağdere Merkez,,38.1736083,32.4826834,,
2502a,Dağdere 2,,38.1748924,32.4853573,,
2503a,Meydan 2,,38.1718916,32.5235917,,
2504a,Meydan 3,,38.1738334,32.5234833,,
2505a,Meydan 4,,38.1786833,32.5237167,,
2506a,Meydan 5,,38.184125,32.5247084,,
2507a,Biçer 1,,38.2323083,32.527975,,
2508a,Biçer 2,,38.2315917,32.530025,,
2509a,Kınık 1,,38.205425,32.547625,,
250a,17400. Sk,,37.747719,32.360993,,
250d,17400. Sk,,37.74779,32.36096,,
2510a,Kınık 2,,38.203375,32.5462917,,
2511a,Kınık 3,,38.2026333,32.5444166,,
2512a,Meydan 6,,38.171825,32.5260083,,
2513d,Bağrıkurt 3,,38.1298834,32.4831,,
2514d,Bağrıkurt 1,,38.1304,32.47975,,
2515a,Bağrıkurt 2,,38.132075,32.4766417,,
2516a,Bağrıkurt 4,,38.12725,32.4880834,,
2517a,Bahçecik,,38.11240102294195,32.49309489503503,,
2517d,Bahçecik,,38.112550873454644,32.493668887764215,,
2518a,Karacaören,,38.076999,32.508264,,
2518d,Karacaören,,38.077061,32.50855,,
251a,Bakar,,37.7299916,32.3390584,,
251d,Bakar,,37.729975,32.3390917,,
252a,Maraşlı,,37.72715,32.3356083,,
252d,Maraşlı,,37.7270917,32.3356583,,
2530a,Onbaşılar,,37.807302,32.401599,,
2531a,Yeni Bursa,,37.807929,32.405843,,
253d,Hocacihan,,37.7219583,32.3316583,,
254d,Karadiğin Fatih Cami,,37.7239917,32.336025,,
255a,Alan,,37.728615,32.337517,,
255d,Alan,,37.728615,32.337657,,
256a,Gödene Orhan Gazi İho,,37.756375,32.39724,,
256d,Gödene Orhan Gazi İho,,37.756325,32.39722,,
257a,17339. Sk,,37.7548667,32.39482,,
257d,17339. Sk,,37.75485,32.39485,,
258a,Gödene Merkez Cami,,37.752814,32.394191,,
258d,Gödene Merkez Cami,,37.752786,32.394368,,
259a,Akdes,,37.7668167,32.4150333,,
259d,Akdes,,37.7668333,32.4149833,,
25d,Konevi,,37.8687917,32.485175,,
260a,Şadırvan,,37.762725,32.4156417,,
260d,Şadırvan,,37.7628,32.4155333,,
261a,Toki Yolu Kuba Cami,,37.75925,32.4159,,
261d,Toki Yolu Kuba Cami,,37.7593167,32.4158083,,
262a,Arpa Çay,,37.75565,32.4161333,,
262d,Arpa Çay,,37.7558,32.4160666,,
263a,Gürbaşak,,37.7498917,32.416475,,
263d,Gürbaşak,,37.7499333,32.4164,,
264a,Serkan,,37.7451166,32.4167833,,
264d,Serkan,,37.7452,32.4167,,
265a,Konya Çimento Girişi,,37.7433167,32.4169333,,
265d,Konya Çimento Girişi,,37.74355,32.4168,,
266a,Yeşilbağ,,37.7406334,32.41665,,
266d,Yeşilbağ,,37.74075,32.4167083,,
267a,Gödene Pazar Yeri,,37.738925,32.4033,,
267d,Gödene Pazar Yeri,,37.7388417,32.4032333,,
268a,17385. Sk,,37.737838,32.400392,,
268d,17385. Sk,,37.737815,32.400521,,
269a,Toki Gödene Parkı,,37.7414,32.4047667,,
269d,Toki Gödene Parkı,,37.741575,32.404825,,
26a,Anıt,,37.868075,32.486058,,
270a,15 Nolu Sağlık Ocağı,,37.7438583,32.4062917,,
270d,15 Nolu Sağlık Ocağı,,37.7437833,32.406075,,
271a,Hanedan 1,,37.7411833,32.3992417,,
271d,Hanedan 1,,37.740825,32.3989417,,
272a,Sultan Ahmet,,37.7424583,32.4017583,,
272d,Sultan Ahmet,,37.7424917,32.4018417,,
273a,17347. Sk,,37.746425,32.4064167,,
273d,17347. Sk,,37.7466167,32.4065,,
274a,Gödene Mezarlığı,,37.7492417,32.410475,,
274d,Gödene Mezarlığı,,37.7494583,32.4103667,,
275a,Hatunsaray,,37.737475,32.41727,,
275d,Hatunsaray,,37.7373,32.41737,,
276a,17459. Sk,,37.7313833,32.41919,,
276d,17459. Sk,,37.7313,32.41932,,
277a,Pamukçu Girişi,,37.7254333,32.4205,,
278a,17438. Sk,,37.7227083,32.41201,,
279a,17450. Sk,,37.71916,32.405778,,
27a,Zafer 1,,37.870441,32.489108,,
280a,17446. Sk,,37.7214917,32.40478,,
281a,17449. Sk,,37.72072,32.402452,,
282d,Gelişim,,37.718074,32.417725,,
283d,Pamukcu Hanı,,37.7181334,32.42087,,
284a,Hakim Evleri,,37.8073583,32.4277667,,
284d,Hakim Evleri,,37.80766,32.427462,,
285a,Karaağaç,,37.806651,32.425986,,
285d,Karaağaç,,37.806547,32.426077,,
286a,İstiklal Yol Çatı Cd.,,37.837382,32.565739,,
286d,İstiklal Yol Çatı Cd.,,37.837338,32.565825,,
287a,Bünyan,,37.8066833,32.4166667,,
287d,Bünyan,,37.8065667,32.4166166,,
288a,Benna,,37.8040583,32.4199584,,
288d,Benna,,37.804125,32.419925,,
289a,Selman,,37.803015,32.421694,,
289d,Selman,,37.80292,32.421785,,
28a,Taşlıdağ,,37.867256,32.446289,,
28d,Taşlıdağ,,37.867493,32.446415,,
290a,Bereketli,,37.801653,32.420428,,
290d,Bereketli,,37.801689,32.420294,,
291a,Yıldızname,,37.799475,32.4174667,,
291d,Yıldızname,,37.799425,32.4174667,,
292a,Bademdere,,37.797557,32.415203,,
292d,Bademdere,,37.797636,32.415128,,
293a,Ödül,,37.7947333,32.4125,,
293d,Ödül,,37.7947,32.4125833,,
294a,Takva,,37.7929534,32.41312,,
294d,Takva,,37.7928334,32.41314,,
295a,Şehit Cumali Gür,,37.78842,32.412006,,
295d,Şehit Cumali Gür,,37.788367,32.411937,,
296a,Birden,,37.786707737683344,32.40945875644684,,
296d,Birden,,37.7868667,32.4093916,,
297a,Ebru,,37.784777,32.407151,,
297d,Ebru,,37.784678,32.407237,,
298a,Beybes Cami,,37.782884,32.406239,,
298d,Beybes Cami,,37.782797,32.406175,,
299a,Elmalı Cami,,37.8152816,32.463475,,
299d,Elmalı Cami,,37.8154016,32.463475,,
29a,Necmettin Erbakan,,37.86416,32.449097,,
29d,Necmettin Erbakan,,37.864361,32.449141,,
2d,Taşbina,,37.876009,32.493733,,
300a,Arazi,,37.817005,32.459546,,
300d,Arazi,,37.817079,32.459573,,
301a,Gezen,,37.818691,32.456188,,
301d,Gezen,,37.8188,32.456209,,
304a,Duraklı,,37.8398583,32.4648083,,
305a,Nergis,,37.781168,32.410601,,
305d,Nergis,,37.781145,32.410526,,
306a,Ulaştır,,37.744247,32.479324,,
307a,Takı 2,,37.842694,32.574317,,
307d,Takı 2,,37.842819,32.574457,,
308a,17158. Sk,,37.739803,32.477483,,
309a,Yeşilbahar,,37.78869313669829,32.41616914048791,,
309d,Yeşilbahar,,37.7886,32.41604,,
30a,Ateşbazı Veli Türbesi,,37.860986,32.450734,,
30d,Ateşbazı Veli Türbesi,,37.861087,32.450893,,
310a,İhsanlı,,37.79227605396356,32.416850421577685,,
310d,İhsanlı,,37.7923166,32.4167417,,
311a,Defne,,37.8172083,32.442925,,
312a,Kurak Köy,,37.815525,32.4444167,,
313a,Tarlabaşı,,37.8131667,32.4418166,,
313d,Tarlabaşı,,37.8128,32.4414333,,
314a,Beyhude,,37.81094,32.4350034,,
314d,Beyhude,,37.81065,32.4352334,,
315a,Kıble,,37.854915,32.470808,,
315d,Kıble,,37.8549417,32.471075,,
316a,18 Nolu Sağlık Ocağı,,37.849865,32.472919,,
316d,18 Nolu Sağlık Ocağı,,37.849867,32.473311,,
317a,Demirköy,,37.848658,32.47042,,
318a,Kömürcü Hammet Cami,,37.8454916,32.467725,,
318d,Kömürcü Hammet Cami,,37.8455833,32.46765,,
319a,Karaaliler,,37.8434917,32.4668083,,
319d,Karaaliler,,37.8435583,32.4668333,,
31a,Doğançay,,37.856743,32.452159,,
31d,Doğançay,,37.856862,32.452373,,
320a,Ali Taşoluk İlkokulu,,37.841425,32.4644417,,
320d,Ali Taşoluk İlkokulu,,37.8414917,32.464425,,
321a,Ahmet Tevfik İleri,,37.838869,32.467296,,
322a,Muz,,37.83688,32.46927,,
323a,Fındıkdere,,37.834699,32.470693,,
324a,Çimendere,,37.832975,32.4682583,,
324d,Çimendere,,37.832825,32.4681417,,
325a,Aşık,,37.830825,32.466325,,
326a,Uzak,,37.8332666,32.4622083,,
327a,Beşdağ,,37.836225,32.4621166,,
328d,Ayyıldız,,37.8365,32.46385,,
329d,Bilali Habeşi Cami,,37.8338583,32.466375,,
32d,Koski,,37.870666,32.483883,,
330a,Bürümcek Cami,,37.8572084,32.4483417,,
330d,Bürümcek Cami,,37.8571083,32.4481417,,
331a,Ebubekir Sıddık Cami,,37.8554917,32.449775,,
331d,Ebubekir Sıddık Cami,,37.8557167,32.44955,,
332a,Bekarlar,,37.8459583,32.447475,,
333a,Huzeyfe Cami,,37.8446583,32.4508917,,
334a,Lale Lisesi,,37.8425667,32.4508834,,
335a,Söylemez,,37.86375,32.489225,,
335d,Söylemez,,37.8637417,32.4892917,,
336a,Söğütlü,,37.860223,32.485959,,
337a,Silahşör,,37.8598,32.4831834,,
337d,Silahşör,,37.8599,32.4831834,,
338a,Aydoğdu Mevlana Cami,,37.8590083,32.4808583,,
338d,Aydoğdu Mevlana Cami,,37.8591083,32.4808583,,
339a,Aydoğdu Havuz,,37.8580417,32.4791417,,
339d,Aydoğdu Havuz,,37.8581417,32.4791417,,
33d,Kazım Karabekir,,37.870483,32.479766,,
340a,Harun Reşit Cami,,37.852697,32.47989,,
340d,Harun Reşit Cami,,37.851248,32.479823,,
341a,Kurtuluş Cami,,37.85136,32.48294,,
341d,Kurtuluş Cami,,37.85112,32.48287,,
342a,Çeçenistan,,37.85218,32.48668,,
342d,Çeçenistan,,37.851853,32.486851,,
343a,Niyaz,,37.82737,32.47422,,
343d,Niyaz,,37.82751,32.47411,,
344a,Meram Çay Cami,,37.850098,32.42779,,
344d,Meram Çay Cami,,37.850093,32.427689,,
345d,Pembe Fürüşan,,37.8562583,32.4815417,,
346d,Gökçeşme,,37.855975,32.4845333,,
347a,Meram İtfaiye,,37.853925,32.48789,,
347d,Meram İtfaiye,,37.853875,32.48816,,
348a,Ara Böldüren,,37.856475,32.48614,,
348d,Ara Böldüren,,37.856775,32.48621,,
349d,Aşık Nuri,,37.8576416,32.4896167,,
34a,Meram Yeni Yol,,37.869733,32.4745,,
34d,Meram Yeni Yol,,37.869858,32.474475,,
350d,Yedi Kızlar,,37.8593667,32.4894333,,
351d,Mevlana İlkokulu,,37.861025,32.4889583,,
352a,Misvak,,37.716389,32.406996,,
354a,Atılgan Caddesi,,37.79821,32.520502,,
354d,Atılgan Caddesi,,37.798165,32.5204,,
355a,17209. Sk,,37.730043,32.467984,,
356a,Gödene Toki,,37.739365,32.406921,,
356d,Gödene Toki,,37.739306,32.407178,,
357a,Şaheser,,37.73908,32.399698,,
357d,Şaheser,,37.739066,32.399506,,
358a,Karadiğin Konya Cd,,37.731876,32.341032,,
358d,Karadiğin Konya Cd,,37.731834,32.341099,,
359a,Söğütlü Çeşme,,37.75072,32.406932,,
359d,Söğütlü Çeşme,,37.750628,32.406964,,
35a,Meteoroloji,,37.868375,32.469283,,
35d,Meteoroloji,,37.868908,32.47065,,
360a,Işıkcan,,37.830661,32.418685,,
360d,Işıkcan,,37.830635,32.41876,,
361a,Saraydüzü,,37.830935,32.414935,,
361d,Saraydüzü,,37.830916,32.415102,,
362d,Erçetin,,37.767046,32.414431,,
363a,Karadiğin Deresi Meydanı,,37.748475,32.365575,,
363d,Karadiğin Deresi Meydanı,,37.748475,32.365675,,
364a,Atalı,,37.803291,32.418186,,
364d,Atalı,,37.803238,32.418089,,
366a,Zigana,,37.852725,32.49174,,
366d,Zigana,,37.853,32.49167,,
367a,Taşkent,,37.851635,32.491695,,
367d,Taşkent,,37.851637,32.491464,,
368a,Mehmet Aytaç,,37.850054,32.490809,,
368d,Mehmet Aytaç,,37.8501,32.490694,,
369a,Şevkabat,,37.846765,32.4900801,,
369d,Şevkabat,,37.84692,32.489935,,
36a,Damla,,37.867458,32.465391,,
36d,Damla,,37.86762,32.465558,,
370a,İğdeli Cami,,37.844204,32.487801,,
370d,İğdeli Cami,,37.844067,32.4875423,,
371a,Ertuğrul Gazi Komek,,37.8406583,32.486775,,
371d,Ertuğrul Gazi Komek,,37.840718,32.486679,,
373a,Akkalay,,37.836485,32.48398,,
373d,Akkalay,,37.83641,32.483935,,
374a,Borsa İlkokulu,,37.8347167,32.4841833,,
374d,Borsa İlkokulu,,37.8348334,32.4841166,,
375a,Nakşibendi Cami,,37.8311833,32.4838333,,
375d,Nakşibendi Cami,,37.8312083,32.483725,,
376a,Kazım Akmirza,,37.8284667,32.4833333,,
376d,Kazım Akmirza,,37.8285,32.483275,,
377a,Kumrulu,,37.824975,32.4928417,,
377d,Kumrulu,,37.8249083,32.4928417,,
378a,Büyük Cami,,37.8224583,32.4975083,,
378d,Büyük Cami,,37.8224417,32.4973917,,
379a,Orak,,37.829875,32.4804916,,
379d,Orak,,37.8292917,32.479575,,
37a,Lastik Durağı,,37.866516,32.462083,,
37d,Lastik Durağı,,37.866575,32.461691,,
380a,Berkoğlu,,37.8308334,32.4856917,,
380d,Berkoğlu,,37.8306666,32.485075,,
381a,Vatanperver,,37.8297666,32.4893,,
381d,Vatanperver,,37.829875,32.488275,,
382a,Özkardeşler,,37.714233,32.407688,,
383a,17454. Sk,,37.715528,32.412586,,
384a,Çapan,,37.833179,32.473247,,
385a,Safranbolu Cd,,37.836203,32.476089,,
385d,Safranbolu Cd,,37.836289,32.475881,,
386a,Duvarlı,,37.839309,32.478391,,
386d,Duvarlı,,37.839353,32.47831,,
387a,Dişçi Mehmet Cami,,37.840567,32.476095,,
387d,Dişçi Mehmet Cami,,37.840463,32.476127,,
388a,Kozağaç Mesleki Ve Teknik Lisesi,,37.805579,32.407763,,
388d,Kozağaç Mesleki Ve Teknik Lisesi,,37.805618,32.407758,,
389a,Ulu Cami,,37.843021,32.484501,,
389d,Ulu Cami,,37.843006,32.484362,,
38a,Evliya Çelebi Parkı,,37.865408,32.457883,,
38d,Evliya Çelebi Parkı,,37.865575,32.457941,,
390a,Dedeli,,37.8461083,32.4862917,,
390d,Dedeli,,37.8461583,32.4862917,,
391a,24 Kasım İlkokulu,,37.8481167,32.4881916,,
391d,24 Kasım İlkokulu,,37.848225,32.4881916,,
392a,Aslanyüreği,,37.848512,32.473499,,
393a,Taş Cami,,37.86515,32.494,,
393d,Taş Cami,,37.8651,32.4939166,,
395a,Paşalı Köprü,,37.860311,32.492714,,
395d,Paşalı Köprü,,37.860351,32.492617,,
396a,Mevlüthan,,37.8574667,32.4925833,,
396d,Mevlüthan,,37.8574667,32.4925,,
397a,Uzunharmanlar Kavşak Cami,,37.853925,32.4934917,,
397d,Uzunharmanlar Kavşak Cami,,37.8537167,32.4934583,,
398a,Emirli,,37.8522333,32.494,,
398d,Emirli,,37.8523084,32.493875,,
399a,Şair Visali,,37.8429917,32.4951583,,
399d,Şair Visali,,37.842975,32.495025,,
39a,Eğitim Fakültesi,,37.863887,32.452433,,
39d,Eğitim Fakültesi,,37.864002,32.452057,,
3a,15 Temmuz Şehitler Durağı,,37.875713,32.49333,,
400a,Meram Mithat Paşa İlkokulu,,37.8412,32.4946917,,
400d,Meram Mithat Paşa İlkokulu,,37.8408667,32.4944667,,
401a,Kalfalar Cami,,37.837876,32.493084,,
401d,Kalfalar Cami,,37.837908,32.492982,,
402a,Tornacılar,,37.8359417,32.4923916,,
402d,Tornacılar,,37.83595,32.4922917,,
404a,Reha,,37.831148,32.490992,,
404d,Reha,,37.831155,32.490873,,
405a,4 Nolu Sağlık Ocağı,,37.8266666,32.4904167,,
405d,4 Nolu Sağlık Ocağı,,37.8266,32.4903333,,
406a,Yeşiloba,,37.8231417,32.4899917,,
406d,Yeşiloba,,37.8231917,32.4899083,,
407a,Arıtoprak,,37.8211666,32.4891667,,
407d,Arıtoprak,,37.8209,32.48895,,
408a,Akmescit,,37.8168417,32.4875583,,
408d,Akmescit,,37.8169,32.4874333,,
409a,Meram Fidanlık,,37.8147833,32.4866417,,
409d,Meram Fidanlık,,37.8148166,32.486525,,
40a,Hallaçlar,,37.854603,32.456281,,
40d,Hallaçlar,,37.854919,32.456182,,
410a,Akarca,,37.812175,32.4853583,,
410d,Akarca,,37.8122083,32.4852083,,
411a,Hasanköy,,37.8081084,32.4835083,,
411d,Hasanköy,,37.8081917,32.4834417,,
412a,Boydere,,37.8057333,32.4823983,,
412d,Boydere,,37.8058,32.4822933,,
413a,Özgenç,,37.8025084,32.4809416,,
413d,Özgenç,,37.8024833,32.4808083,,
414a,Binbir,,37.799675,32.4794,,
414d,Binbir,,37.7996833,32.479325,,
415a,Atom,,37.79585,32.4776667,,
415d,Atom,,37.7959167,32.4775334,,
417a,Fahrunnisa Cami,,37.860329,32.500063,,
417d,Fahrunnisa Cami,,37.860386,32.499999,,
418a,Nurullahoğlu Cami,,37.8573833,32.497975,,
418d,Nurullahoğlu Cami,,37.8573334,32.49785,,
419a,İshak Cami,,37.854543,32.497419,,
419d,İshak Cami,,37.854571,32.497306,,
41a,Meram Devlet Hastanesi,,37.861961,32.445735,,
41d,Meram Devlet Hastanesi,,37.861891,32.445058,,
420d,Dargın,,37.850991,32.496381,,
421a,Hatipzade,,37.8495667,32.4945417,,
421d,Hatipzade,,37.8493,32.4944166,,
422a,Salı Pazarı,,37.8460417,32.495225,,
422d,Salı Pazarı,,37.84605,32.4950417,,
423a,Kaymak,,37.8430833,32.49602,,
423d,Kaymak,,37.8430833,32.4959917,,
424a,Gurbetli,,37.8409,32.496699,,
424d,Gurbetli,,37.841075,32.4966083,,
425a,Hacı Osman Cami,,37.838525,32.497225,,
425d,Hacı Osman Cami,,37.8386334,32.49715,,
426a,Zeybek,,37.8353166,32.498175,,
426d,Zeybek,,37.8353166,32.4980833,,
427a,Elif,,37.8323,32.4982583,,
427d,Elif,,37.8323167,32.4982166,,
428a,Abdürreşit,,37.8288,32.4984666,,
428d,Abdürreşit,,37.8288166,32.49835,,
429a,Bütüner,,37.8260083,32.4985833,,
429d,Bütüner,,37.8262,32.4984167,,
42a,Anahtar,,37.860858,32.442475,,
42d,Anahtar,,37.861016,32.44255,,
430a,Yaylapınar İlkokulu,,37.823459,32.498923,,
430d,Yaylapınar İlkokulu,,37.823469,32.498626,,
431a,Kaş Cami,,37.8178,32.49945,,
431d,Kaş Cami,,37.8177667,32.49925,,
432a,Şeyh Şamil İlkokulu,,37.81445,32.4995334,,
432d,Şeyh Şamil İlkokulu,,37.81425,32.4993833,,
4337a,Taşağıl,,37.853798,32.661312,,
4337d,Taşağıl,,37.853974,32.661387,,
433a,Sadık Hoca,,37.8121834,32.4996,,
433d,Sadık Hoca,,37.8121083,32.49945,,
434a,Yeşil Cami,,37.80785,32.499725,,
434d,Yeşil Cami,,37.808,32.4995667,,
435a,Eyyüb El Ensari Cami,,37.803364,32.499864,,
435d,Eyyüb El Ensari Cami,,37.803322,32.499633,,
436a,32 Nolu Sağlık Ocağı,,37.8004666,32.49995,,
436d,32 Nolu Sağlık Ocağı,,37.8005333,32.4998,,
437a,Sağöz,,37.7967666,32.50025,,
437d,Sağöz,,37.7969666,32.5000496,,
438a,Özbayrak,,37.7929834,32.5003833,,
438d,Özbayrak,,37.7930833,32.5002167,,
439a,Meşin,,37.7900166,32.50045,,
439d,Meşin,,37.7903167,32.5002833,,
43a,Büyükpınar,,37.859491,32.438675,,
43d,Büyükpınar,,37.859658,32.438766,,
440a,Pano,,37.7863,32.5004833,,
440d,Pano,,37.7864083,32.5004417,,
441a,Seyyare,,37.78285,32.5004667,,
441d,Seyyare,,37.7829833,32.5003034,,
442a,Kalfalar Salı Pazarı,,37.7781167,32.50024,,
442d,Kalfalar Salı Pazarı,,37.7783333,32.50012,,
443a,Mavi Çeşme,,37.7750334,32.4998333,,
443d,Mavi Çeşme,,37.775,32.4997666,,
444a,Dostluk,,37.769532,32.500251,,
444d,Dostluk,,37.769445,32.500465,,
445a,15703. Sk,,37.7681583,32.496875,,
446a,15707. Sk,,37.7672,32.4943084,,
447a,Öz,,37.7645583,32.491875,,
448a,Kızılkaya,,37.7626417,32.4897417,,
449a,17220. Sk,,37.757875,32.4876583,,
44a,Soğanlı,,37.85847,32.435771,,
44d,Soğanlı,,37.858587,32.435669,,
450a,15726. Sk,,37.754425,32.4864583,,
451a,17153. Sk,,37.7508417,32.4853,,
452a,15721. Sk,,37.7478167,32.4842834,,
453a,17158. Sk,,37.7446417,32.4830083,,
453d,17158. Sk,,37.7446417,32.4829583,,
454a,Latifler,,37.7397583,32.4804417,,
455a,17161. Sk,,37.7373583,32.4779583,,
456a,17437. Sk,,37.7221833,32.40905,,
457a,17165. Sk,,37.738425,32.4726917,,
458a,17160. Sk,,37.7381417,32.4762917,,
459a,17167. Sk,,37.73775,32.4696333,,
45a,Hacı Şaban,,37.857368,32.433141,,
45d,Hacı Şaban,,37.857608,32.433301,,
460a,17206. Sk,,37.7331583,32.467275,,
461d,17211. Sk,,37.7315917,32.46975,,
462a,17194. Sk,,37.7335834,32.4718833,,
463d,17187. Sk,,37.7345103,32.4733917,,
464a,Gülpembe,,37.721464,32.406604,,
465a,17157. Sk,,37.746506,32.485231,,
466a,17156. Sk,,37.747011,32.490037,,
467a,Hasan Basri Cami,,37.747825,32.4939167,,
468a,Musab Bin Umeyir Cami,,37.765559,32.49952,,
468d,Musab Bin Umeyir Cami,,37.765538,32.499896,,
469a,15686. Sk,,37.761653,32.499837,,
469d,15686. Sk,,37.761718,32.49958,,
46a,Gelinyaka,,37.855975,32.429516,,
46d,Gelinyaka,,37.856191,32.429441,,
470a,Ashabı Kehf Cami,,37.758393,32.500273,,
470d,Ashabı Kehf Cami,,37.758335,32.500605,,
471a,Konak 3,,37.7549334,32.4999,,
471d,Konak 3,,37.754825,32.499975,,
472a,Arı,,37.7522667,32.4996834,,
472d,Arı,,37.7521833,32.4997583,,
473a,Konak 2,,37.7482333,32.499175,,
473d,Konak 2,,37.748175,32.4991666,,
474a,17159. Sk,,37.7358,32.4968834,,
474d,17159. Sk,,37.7356167,32.496875,,
475a,Elmalık,,37.72485,32.493725,,
475d,Elmalık,,37.7246917,32.4936834,,
476a,17192. Sk,,37.7087917,32.4885583,,
476d,17192. Sk,,37.7085917,32.4884584,,
477a,Boyalı Cami,,37.68235,32.46845,,
478a,Sefaköy,,37.7795167,32.5039667,,
478d,Sefaköy,,37.779625,32.5036584,,
479a,Teslim,,37.7845084,32.5071083,,
479d,Teslim,,37.7846083,32.5067083,,
47a,Fidanlık,,37.855183,32.42765,,
47d,Fidanlık,,37.855589,32.427931,,
480a,Kapak,,37.7887667,32.5083867,,
480d,Kapak,,37.7887834,32.5080834,,
481a,Kanat,,37.7907916,32.51015,,
481d,Kanat,,37.7908833,32.5101833,,
482a,Üçgün,,37.793512,32.512664,,
482d,Üçgün,,37.793419,32.512428,,
483a,Akbalık,,37.7961083,32.510825,,
483d,Akbalık,,37.79625,32.5107833,,
484a,Elvan Cami,,37.79985,32.5107,,
484d,Elvan Cami,,37.7998833,32.5107,,
485a,Altıoklar İlkokulu,,37.7986334,32.5064834,,
485d,Altıoklar İlkokulu,,37.798525,32.5063166,,
486a,Sarıca,,37.7974417,32.50365,,
486d,Sarıca,,37.7973834,32.5035667,,
487a,Takat,,37.8130167,32.4970917,,
487d,Takat,,37.8130083,32.4970583,,
488a,Bahri,,37.810625,32.4962417,,
488d,Bahri,,37.8106416,32.496225,,
489a,Muhabbet,,37.80834,32.494779,,
489d,Muhabbet,,37.808397,32.494871,,
48a,Çınaraltı,,37.853408,32.423325,,
48d,Çınaraltı,,37.8534917,32.4232583,,
491a,Bozören 1,,37.8036834,32.491325,,
491d,Bozören 1,,37.8037417,32.4913083,,
492a,Abdikale,,37.800185,32.491963,,
492d,Abdikale,,37.800281,32.492011,,
493a,Çevikler,,37.799075,32.4941167,,
493d,Çevikler,,37.79905,32.4941,,
494a,Kaş Alantepe Cami,,37.7977833,32.4962417,,
494d,Kaş Alantepe Cami,,37.7978417,32.496275,,
495a,Binyaprak,,37.7957834,32.4953917,,
495d,Binyaprak,,37.795825,32.4953917,,
496a,Akşam Güneşi,,37.7932417,32.4943583,,
496d,Akşam Güneşi,,37.7932833,32.4943583,,
497a,Yaylapınar Fatih Cami,,37.7914833,32.4934167,,
497d,Yaylapınar Fatih Cami,,37.7915834,32.4933833,,
498a,Gelir,,37.7888333,32.4922666,,
498d,Gelir,,37.7889,32.4922666,,
499a,Hasköy,,37.7840333,32.4920167,,
499d,Hasköy,,37.7841333,32.4920334,,
49a,Sahibi Atalar,,37.8515583,32.4213217,,
49d,Sahibi Atalar,,37.851575,32.421275,,
4a,Ulaş Baba,,37.879525,32.49253,,
4d,Ulaş Baba,,37.879625,32.49273,,
500a,Pelit Köy,,37.7805083,32.4917917,,
500d,Pelit Köy,,37.780575,32.4918083,,
501a,Alantepe,,37.7794417,32.4883,,
501d,Alantepe,,37.7795833,32.4883334,,
502a,Billur,,37.776125,32.495425,,
502d,Billur,,37.7760667,32.49545,,
503a,Karatepe 1,,37.7772667,32.4919,,
503d,Karatepe 1,,37.7772166,32.491875,,
504a,Çamköy,,37.7789583,32.4876083,,
504d,Çamköy,,37.7790583,32.487475,,
505a,Aslantaş,,37.7817583,32.4857083,,
505d,Aslantaş,,37.781825,32.4856083,,
506a,Sümbül,,37.7844083,32.4836917,,
506d,Sümbül,,37.7843833,32.483675,,
507a,Karatepe 4,,37.786775,32.4818417,,
507d,Karatepe 4,,37.7867583,32.481825,,
508a,Eşmesu,,37.7888417,32.480025,,
508d,Eşmesu,,37.7888,32.4799583,,
509a,Ayvaz,,37.7922167,32.4777667,,
509d,Ayvaz,,37.7921833,32.4776667,,
50a,Altınsaçan,,37.848325,32.4206584,,
50d,Altınsaçan,,37.8483917,32.420575,,
510a,Erginer,,37.793075,32.480775,,
510d,Erginer,,37.7931083,32.480775,,
511a,Kani,,37.795947,32.483503,,
511d,Kani,,37.796008,32.483439,,
512a,Çamoluk,,37.799575,32.4871417,,
512d,Çamoluk,,37.7996917,32.4872083,,
513a,Bozdere,,37.801675,32.489325,,
513d,Bozdere,,37.8017583,32.489375,,
514a,Çalıkdere,,37.8076833,32.4930417,,
514d,Çalıkdere,,37.8077833,32.4930333,,
515a,Veysel Karani Kuran Kursu,,37.8103,32.49414,,
515d,Veysel Karani Kuran Kursu,,37.81033,32.49409,,
516a,Alkonak,,37.81475,32.4959667,,
516d,Alkonak,,37.8147833,32.4959333,,
517a,Uhut Mezarlığı,,37.818106,32.4968,,
517d,Uhut Mezarlığı,,37.818119,32.496703,,
518a,Kanal Kuba Cami,,37.840192,32.543982,,
518d,Kanal Kuba Cami,,37.840338,32.543799,,
519a,Düden,,37.82097,32.488347,,
519d,Düden,,37.820866,32.488256,,
51a,Dört Okka Cami,,37.8451167,32.42025,,
51d,Dört Okka Cami,,37.8450833,32.4201333,,
520a,Yeşiloba,,37.821641,32.480977,,
520d,Yeşiloba,,37.821681,32.480843,,
521a,Erdemsu,,37.7894334,32.4881583,,
521d,Erdemsu,,37.78945,32.4881333,,
522a,Bozören 2,,37.7853583,32.4881583,,
522d,Bozören 2,,37.78535,32.488125,,
523a,Ayıran,,37.7827333,32.4878833,,
523d,Ayıran,,37.7827666,32.4878667,,
524a,Leylak,,37.7281833,32.4947917,,
524d,Leylak,,37.7283834,32.4947667,,
525a,Hayır,,37.8178417,32.5059833,,
525d,Hayır,,37.8178083,32.505875,,
526a,Mezitli,,37.8158083,32.508525,,
526d,Mezitli,,37.8157583,32.5084666,,
527a,Ballı,,37.8140583,32.5112583,,
527d,Ballı,,37.8140167,32.51115,,
528a,Babül,,37.810891,32.512241,,
528d,Babül,,37.810838,32.512176,,
529a,Topraklık Kerim Dede Cami,,37.865859,32.512643,,
52a,Çilek,,37.8424667,32.4208083,,
52d,Çilek,,37.84255,32.4206917,,
530a,Zeytin Dalı,,37.819525,32.5033833,,
530d,Zeytin Dalı,,37.819475,32.5033083,,
531d,Efrahim,,37.8103667,32.5110333,,
532a,Güner,,37.81033,32.507634,,
533a,Başkum,,37.80905,32.508236,,
534a,Ören,,37.821896,32.503288,,
534d,Ören,,37.821985,32.503252,,
535a,Baybal,,37.82848,32.490559,,
535d,Baybal,,37.828488,32.490451,,
536a,Renklidağ,,37.8040583,32.502975,,
536d,Renklidağ,,37.8041334,32.5030334,,
537a,Apaydın,,37.804849,32.508255,,
537d,Apaydın,,37.804915,32.508224,,
538a,Duygulu,,37.806704,32.511727,,
538d,Duygulu,,37.806727,32.51186,,
539a,Üzümcü Cami,,37.819204,32.553471,,
53a,Kardeş,,37.8401583,32.421875,,
53d,Kardeş,,37.8402417,32.4217083,,
540a,Ilgazdağı,,37.808472,32.515083,,
540d,Ilgazdağı,,37.808544,32.514874,,
541a,17288. Sk,,37.740628,32.413042,,
541d,17288. Sk,,37.740711,32.413047,,
542a,Akseki,,37.8282917,32.505575,,
542d,Akseki,,37.828375,32.5055417,,
543a,Bolu,,37.8249167,32.503925,,
543d,Bolu,,37.8249667,32.50385,,
544a,Yemişli,,37.8222333,32.5043,,
544d,Yemişli,,37.82215,32.5042167,,
545a,Söğütalan,,37.8227417,32.507175,,
545d,Söğütalan,,37.822625,32.5070333,,
546a,Yenidoğan,,37.8229417,32.5099,,
546d,Yenidoğan,,37.8228083,32.50955,,
547a,Fındıkçı,,37.8226417,32.5138,,
547d,Fındıkçı,,37.822675,32.5137417,,
548a,Mükerrem,,37.8225083,32.515925,,
548d,Mükerrem,,37.8224667,32.5158917,,
549a,Düzgün,,37.8199417,32.5166,,
54a,Hakyolu,,37.8725417,32.4792417,,
54d,Hakyolu,,37.8726917,32.4792083,,
550a,Gülgün,,37.818037,32.517144,,
550d,Gülgün,,37.818132,32.517154,,
551a,Zincirli,,37.818075,32.5141833,,
551d,Zincirli,,37.8181,32.514275,,
552a,Su Üstü,,37.8183333,32.5115166,,
552d,Su Üstü,,37.8183583,32.5116834,,
553a,Süleymaniye,,37.8176833,32.5088834,,
553d,Süleymaniye,,37.8177417,32.508975,,
554a,Akid,,37.821759,32.485456,,
554d,Akid,,37.821664,32.485429,,
555a,Çardakçılar,,37.8478,32.4956167,,
556a,Amasra,,37.849984,32.496463,,
556d,Amasra,,37.850156,32.496742,,
557a,Seyitgazi,,37.8504834,32.4981,,
557d,Seyitgazi,,37.8504834,32.498,,
558a,Zafer İlkokulu,,37.848108,32.499291,,
558d,Zafer İlkokulu,,37.847911,32.499291,,
55a,Sevilay,,37.87215,32.4723333,,
55d,Sevilay,,37.872267,32.472104,,
560a,Çobanbey,,37.844076,32.501104,,
560d,Çobanbey,,37.843951,32.50105,,
562a,Kozağaç Cd,,37.804355,32.4234,,
562d,Kozağaç Cd,,37.80442,32.423314,,
563a,Meram Fen Lisesi,,37.83675,32.5087333,,
563d,Meram Fen Lisesi,,37.83665,32.5087333,,
564a,Şehit Ahmet Erol,,37.8345333,32.511,,
564d,Şehit Ahmet Erol,,37.8344417,32.510975,,
565a,Doğan,,37.8315583,32.5118833,,
565d,Doğan,,37.8316417,32.5118167,,
566a,Kamışlı,,37.8311083,32.507875,,
566d,Kamışlı,,37.8310667,32.5079083,,
567a,17009. Sk,,37.7507496,32.5283851,,
567d,17009. Sk,,37.75077,32.52835,,
568a,Karaçayır,,37.8310417,32.5056666,,
568d,Karaçayır,,37.8310834,32.5056,,
569a,Dalaman,,37.8337666,32.50535,,
569d,Dalaman,,37.8337916,32.505275,,
56a,Hoca Ahmed Fakih Cami,,37.8722167,32.4683833,,
56d,Hoca Ahmed Fakih Cami,,37.87235,32.4684667,,
570a,Kubbeli,,37.8366333,32.50489,,
570d,Kubbeli,,37.8365167,32.5048333,,
571a,Tevfikiye Cami,,37.848925,32.503975,,
571d,Tevfikiye Cami,,37.84895,32.50395,,
572a,Ahmet Özcan,,37.84857,32.50376,,
572d,Ahmet Özcan,,37.84883,32.50378,,
574a,Artova,,37.827557,32.507653,,
574d,Artova,,37.827818,32.507761,,
576a,Alan Başı,,37.828434,32.514011,,
576d,Alan Başı,,37.828186,32.514247,,
577a,Altınyüzük 1,,37.840391,32.577686,,
577d,Altınyüzük 1,,37.840274,32.57774,,
578a,Altınyüzük 2,,37.837941,32.577176,,
578d,Altınyüzük 2,,37.837985,32.577112,,
579a,Çiğil,,37.845284,32.502557,,
579d,Çiğil,,37.845324,32.502434,,
57a,Mimar Yusuf,,37.8716166,32.4627667,,
57d,Mimar Yusuf,,37.8717333,32.4626333,,
580a,Argıthan,,37.84783,32.503378,,
580d,Argıthan,,37.847802,32.503303,,
581a,Edremit,,37.8486334,32.5015,,
581d,Edremit,,37.84885,32.50135,,
582a,Devletoğlu,,37.850372,32.50266,,
582d,Devletoğlu,,37.850434,32.502783,,
583a,Loras Dağı,,37.8517,32.5015917,,
583d,Loras Dağı,,37.8516917,32.5015083,,
584a,Bestekar,,37.8531417,32.499225,,
584d,Bestekar,,37.8530834,32.4990834,,
585d,Kıyıcı,,37.8623833,32.50317,,
586d,Yıldız,,37.8594917,32.50324,,
587a,Ataçelebi,,37.8599583,32.50212,,
588a,Uluırmak İlkokulu,,37.856825,32.50396,,
588d,Uluırmak İlkokulu,,37.856825,32.50384,,
58a,Ulusöz,,37.8709333,32.4589333,,
58d,Ulusöz,,37.871125,32.4593,,
590a,Küçükkavaklı,,37.851625,32.50662,,
590d,Küçükkavaklı,,37.851605,32.50649,,
591a,Emek,,37.8462083,32.50949,,
591d,Emek,,37.8461883,32.50939,,
592a,Hz. Ebubekir Cami,,37.843987,32.510545,,
592d,Hz. Ebubekir Cami,,37.843395,32.51074,,
593a,Kare,,37.8407,32.51205,,
593d,Kare,,37.8406417,32.51195,,
594a,Yücetaş,,37.8374833,32.5134584,,
594d,Yücetaş,,37.8372583,32.5133917,,
595a,Zengen,,37.8336917,32.515175,,
595d,Zengen,,37.833475,32.5150417,,
596a,Müşir,,37.829826,32.516086,,
596d,Müşir,,37.829891,32.516285,,
597a,Çevre Yolu 1,,37.8270584,32.5169917,,
597d,Çevre Yolu 1,,37.8271,32.5166167,,
598a,Doğanay,,37.8231917,32.5178417,,
598d,Doğanay,,37.822975,32.5175583,,
599a,Özkan,,37.820376,32.518522,,
599d,Özkan,,37.820374,32.518179,,
59a,Azamet,,37.8707667,32.4563333,,
59d,Azamet,,37.8709,32.4564,,
5a,Parsana,,37.8813084,32.49022,,
5d,Parsana,,37.8814333,32.49037,,
601a,Akyumak,,37.8159917,32.519525,,
601d,Akyumak,,37.8158417,32.5191917,,
602a,Hadimi Park,,37.812125,32.5204083,,
602d,Hadimi Park,,37.81205,32.5200667,,
603a,Ateşkes,,37.8079666,32.5212834,,
603d,Ateşkes,,37.8079834,32.5209416,,
604a,Eğridağ,,37.8043416,32.5217083,,
604d,Eğridağ,,37.80445,32.5220166,,
605a,Fatih Sultan Mehmet Cami,,37.8005167,32.5228417,,
605d,Fatih Sultan Mehmet Cami,,37.8003667,32.5225417,,
606a,Tecelli,,37.7963666,32.52385,,
606d,Tecelli,,37.7962167,32.523525,,
607a,Alanköy,,37.792475,32.524775,,
607d,Alanköy,,37.7923667,32.5244333,,
608a,Çilenti,,37.790364,32.525303,,
608d,Çilenti,,37.790182,32.524981,,
609a,Medaş Alakova Tesisleri,,37.7869167,32.526475,,
609d,Medaş Alakova Tesisleri,,37.7868,32.5261417,,
60a,Trafik Parkı,,37.8709417,32.4509666,,
60d,Trafik Parkı,,37.871283,32.451982,,
610a,Uzunoba,,37.7838,32.527725,,
610d,Uzunoba,,37.783775,32.5273917,,
611a,Acar,,37.7803333,32.5288167,,
611d,Acar,,37.7809583,32.528925,,
612a,Leylek,,37.7763334,32.53095,,
612d,Leylek,,37.7755417,32.530925,,
613a,İmamı Azam Cami,,37.773823,32.53211,,
613d,İmamı Azam Cami,,37.773727,32.531868,,
614a,Urgancı,,37.7676416,32.534975,,
614d,Urgancı,,37.7667667,32.5349833,,
615a,17008. Sk,,37.747677,32.528961,,
615d,17008. Sk,,37.74781,32.52888,,
616a,Çelebi,,37.754275,32.541225,,
616d,Çelebi,,37.7541917,32.5409083,,
617a,Edebiyat Cd,,37.7500916,32.5431583,,
617d,Edebiyat Cd,,37.7500583,32.542825,,
618a,İçeri Çumra,,37.7454917,32.5453083,,
618d,İçeri Çumra,,37.7454417,32.544975,,
619a,17119. Sk,,37.7417667,32.547025,,
619d,17119. Sk,,37.74165,32.546725,,
61a,Mürsel,,37.8703333,32.447,,
61d,Mürsel,,37.870502,32.446945,,
620a,Özmen,,37.7377834,32.548875,,
620d,Özmen,,37.737675,32.548575,,
621a,17078. Sk,,37.73291,32.551192,,
621d,17078. Sk,,37.732813,32.550752,,
622a,Boruktolu Çıkışı,,37.7139757,32.560268,,
622d,Boruktolu Çıkışı,,37.714264,32.560536,,
623a,Fatih Sultan Mehmet,,37.7104083,32.5629917,,
623d,Fatih Sultan Mehmet,,37.710239,32.562819,,
624a,17030. Sk,,37.74581,32.53288,,
624d,17030. Sk,,37.74563,32.53287,,
625a,Alperen,,37.6929,32.580025,,
625d,Alperen,,37.6927334,32.5804583,,
626a,Akkay,,37.669725,32.5943584,,
626d,Akkay,,37.6694584,32.5942166,,
627a,Varan,,37.667475,32.590775,,
627d,Varan,,37.6674,32.5909334,,
628a,Selamet,,37.6649417,32.5867083,,
628d,Selamet,,37.6647583,32.5867,,
629a,Deniziçi,,37.662225,32.582225,,
629d,Deniziçi,,37.6620917,32.5823083,,
62a,Bahçıvan,,37.870425,32.443225,,
62d,Bahçıvan,,37.870511,32.443469,,
630a,Sebil,,37.6600583,32.5790833,,
630d,Sebil,,37.6600917,32.579425,,
631a,Çarıklar İlkokulu,,37.65845,32.5763167,,
631d,Çarıklar İlkokulu,,37.6582583,32.5763,,
632a,Atatürk Cd,,37.65725,32.573214,,
632d,Atatürk Cd,,37.657197,32.573291,,
633a,Battal,,37.656175,32.5700333,,
633d,Battal,,37.6561083,32.5699417,,
634a,Dudayev,,37.6557583,32.5671667,,
634d,Dudayev,,37.6556917,32.5671083,,
635a,Vatan,,37.6537917,32.5645333,,
635d,Vatan,,37.6536917,32.5642583,,
636d,Balcılar,,37.651634,32.558981,,
637a,17044. Sk,,37.740653,32.530785,,
637d,17044. Sk,,37.740864,32.530657,,
638a,Cumhuriyet İlkokulu,,37.703323,32.567369,,
638d,Cumhuriyet İlkokulu,,37.7030417,32.5672083,,
639a,Konak 1,,37.7011083,32.5708583,,
639d,Konak 1,,37.701289,32.571153,,
63a,Konevi Kültür Merkezi,,37.8706,32.4413334,,
63d,Konevi Kültür Merkezi,,37.870764,32.440609,,
640a,Şelale Cd,,37.825789,32.530324,,
640d,Şelale Cd,,37.825727,32.530234,,
641a,Katip Çelebi,,37.699435,32.576811,,
641d,Katip Çelebi,,37.6992,32.5767167,,
642a,Atatürk İlkokulu,,37.697652,32.580868,,
642d,Atatürk İlkokulu,,37.69776,32.5809,,
643a,Hürriyet,,37.69953,32.586779,,
643d,Hürriyet,,37.699431,32.586774,,
644a,Kaşınhanı Hürriyet,,37.698743,32.590609,,
644d,Kaşınhanı Hürriyet,,37.698817,32.590588,,
645a,Erbay,,37.701897,32.592519,,
645d,Erbay,,37.701899,32.592642,,
646a,Horasanlı,,37.703352,32.590609,,
646d,Horasanlı,,37.703435,32.590593,,
647a,Kızılay,,37.705218,32.587423,,
647d,Kızılay,,37.705122,32.58746,,
648a,Tunahan,,37.703055,32.584118,,
648d,Tunahan,,37.703163,32.584145,,
649a,Rabia Bilgen,,37.704672,32.581066,,
649d,Rabia Bilgen,,37.704772,32.581136,,
64a,Gelinalan,,37.869732,32.438002,,
64d,Gelinalan,,37.869932,32.438002,,
650a,Ahmet Efendi,,37.701531,32.579167,,
650d,Ahmet Efendi,,37.701525,32.579087,,
651a,Kalkınma,,37.702974,32.573879,,
651d,Kalkınma,,37.702931,32.57398,,
652a,26691. Sk,,37.719527,32.526909,,
652d,26691. Sk,,37.719552,32.526803,,
653a,Güneysu,,37.745378,32.534722,,
653d,Güneysu,,37.74524,32.534851,,
654a,17054. Sk,,37.74245,32.532301,,
654d,17054. Sk,,37.74245,32.5321,,
655a,17045. Sk,,37.738312,32.53144,,
655d,17045. Sk,,37.73839,32.53173,,
656a,Ereğli,,37.737097,32.533532,,
656d,Ereğli,,37.737505,32.533162,,
657a,17049. Sk,,37.7352667,32.5318083,,
657d,17049. Sk,,37.7353917,32.531775,,
658a,Çomaklı Cami,,37.731376,32.528774,,
658d,Çomaklı Cami,,37.731336,32.528674,,
659a,17067. Sk,,37.729658,32.529911,,
659d,17067. Sk,,37.729677,32.529809,,
65a,Günışığı,,37.852719,32.460031,,
65d,Günışığı,,37.852867,32.460185,,
660a,17075. Sk,,37.728375,32.5292417,,
660d,17075. Sk,,37.72845,32.5292167,,
661a,17076. Sk,,37.725095,32.52747,,
661d,17076. Sk,,37.725105,32.527336,,
662a,17611. Sk,,37.709873,32.53019,,
662d,17611. Sk,,37.709858,32.530083,,
663a,Boruktolu Cami,,37.7079417,32.531375,,
663d,Boruktolu Cami,,37.7080083,32.5312167,,
664a,17584. Sk,,37.707875,32.5352084,,
664d,17584. Sk,,37.7078084,32.5351833,,
665a,17580. Sk,,37.7084333,32.5416083,,
665d,17580. Sk,,37.7083833,32.5415917,,
666a,Han,,37.7089583,32.5474167,,
666d,Han,,37.7088917,32.5473167,,
667a,Bulgurlu 2,,37.7094333,32.5505083,,
667d,Bulgurlu 2,,37.7093833,32.5505333,,
668a,Yıldızhan,,37.7391167,32.549975,,
668d,Yıldızhan,,37.7391667,32.5500333,,
669a,Parmak 1,,37.7393166,32.5547833,,
669d,Parmak 1,,37.7393583,32.5548833,,
66a,Kantarcı,,37.868018,32.434141,,
66d,Kantarcı,,37.868036,32.433771,,
670a,Parmak 2,,37.7396667,32.5594333,,
670d,Parmak 2,,37.7397166,32.5595167,,
671a,17088. Sk,,37.7401833,32.5631833,,
671d,17088. Sk,,37.7401833,32.5630833,,
672a,Kara,,37.739325,32.5708583,,
672d,Kara,,37.739325,32.5709583,,
673a,17096. Sk,,37.734571,32.571925,,
673d,17096. Sk,,37.734598,32.572016,,
674a,17106. Sk,,37.7325,32.57251,,
675a,Parmak 3,,37.7411334,32.5731917,,
675d,Parmak 3,,37.7411934,32.5731917,,
676a,Ali Yaman İlkokulu,,37.7430583,32.5644083,,
676d,Ali Yaman İlkokulu,,37.743025,32.56435,,
677a,Şensoy,,37.7466667,32.5667333,,
677d,Şensoy,,37.7466917,32.56675,,
678a,Aydın,,37.747825,32.5690333,,
678d,Aydın,,37.747825,32.5688667,,
679a,Bayrak,,37.7510417,32.5645417,,
679d,Bayrak,,37.7510261,32.5644836,,
67a,Yaka Cami,,37.86468,32.430385,,
67d,Yaka Cami,,37.864705,32.430283,,
680a,Azimkar,,37.7538917,32.5605083,,
680d,Azimkar,,37.7538583,32.5604416,,
681a,Uğraş,,37.7562917,32.5570917,,
681d,Uğraş,,37.7562917,32.557025,,
682a,Ormankaya,,37.758575,32.5538916,,
682d,Ormankaya,,37.758575,32.5538,,
683a,İlgi,,37.7607833,32.5494834,,
683d,İlgi,,37.7607583,32.5494416,,
684a,Koyunlu,,37.763525,32.545625,,
684d,Koyunlu,,37.7635417,32.5454916,,
685a,Konak 4,,37.680237,32.474282,,
685d,Konak 4,,37.680308,32.474128,,
686a,Çanakpınar,,37.7652916,32.5447083,,
686d,Çanakpınar,,37.765325,32.5447583,,
687a,Çanakpınar Yolu 3,,37.7677417,32.5430083,,
687d,Çanakpınar Yolu 3,,37.7677417,32.5429083,,
688a,Çanakçınar Yolu,,37.7704416,32.5398,,
688d,Çanakçınar Yolu,,37.7703583,32.5397917,,
689a,Akpınar,,37.773075,32.5368083,,
689d,Akpınar,,37.773025,32.5367583,,
68a,Gümüşhane,,37.8626333,32.4289166,,
68d,Gümüşhane,,37.862797,32.4289,,
690a,Çanakpınar Yolu 2,,37.776025,32.533825,,
690d,Çanakpınar Yolu 2,,37.7759917,32.533775,,
691a,Karaaslan Hadimi Park,,37.80845,32.51815,,
692a,Vesselam,,37.8051666,32.5184666,,
693a,Uzunova,,37.80135,32.5193,,
693d,Uzunova,,37.8015333,32.5191334,,
695a,Başvekil,,37.796385,32.516603,,
695d,Başvekil,,37.79638,32.516549,,
696a,Andiçen,,37.79255,32.5173,,
696d,Andiçen,,37.7926584,32.51725,,
697a,Fidanlık Cd,,37.790125,32.5170917,,
697d,Fidanlık Cd,,37.79025,32.5170834,,
698a,Gürpınar,,37.787097,32.515142,,
698d,Gürpınar,,37.787087,32.515266,,
699a,Aybahçe Ahmet Haşhaş İlkokulu,,37.7841583,32.5138833,,
699d,Aybahçe Ahmet Haşhaş İlkokulu,,37.7842333,32.5138917,,
69a,Yalçıntepe,,37.860598,32.428563,,
69d,Yalçıntepe,,37.86099,32.428454,,
6a,Trafik,,37.8794,32.48765,,
6d,Trafik,,37.8783667,32.48773,,
700a,Aybahçe İlkokulu,,37.7823083,32.5127667,,
700d,Aybahçe İlkokulu,,37.782375,32.5127916,,
701a,Bindal,,37.7805983,32.509625,,
701d,Bindal,,37.780625,32.509755,,
702a,15426. Sk,,37.778225,32.5069083,,
702d,15426. Sk,,37.778325,32.506875,,
703a,15450. Sk,,37.7767416,32.5049583,,
703d,15450. Sk,,37.7768167,32.504925,,
704a,Altınbaşak,,37.7737583,32.5052417,,
704d,Altınbaşak,,37.7738083,32.5052584,,
705a,15447. Sk,,37.7739667,32.5080083,,
705d,15447. Sk,,37.773975,32.5079083,,
706a,Alsancak Cami,,37.775475,32.5099917,,
706d,Alsancak Cami,,37.7755417,32.51005,,
707a,15431. Sk,,37.7768917,32.5125333,,
707d,15431. Sk,,37.7769417,32.5125083,,
708a,Alsancak,,37.7788416,32.5159583,,
708d,Alsancak,,37.7789083,32.5159917,,
709a,İmamı Azam 2,,37.75897,32.52396,,
709d,İmamı Azam 2,,37.7589417,32.5238075,,
70a,Kasım Halife,,37.8572917,32.427925,,
70d,Kasım Halife,,37.857375,32.427863,,
710a,Akyurt,,37.783575,32.5164417,,
710d,Akyurt,,37.7836083,32.5163834,,
711a,Ayvalı Bağ,,37.785,32.51925,,
711d,Ayvalı Bağ,,37.785025,32.5191666,,
712a,Yeşil Paşa,,37.786757,32.521858,,
712d,Yeşil Paşa,,37.786779,32.521849,,
713a,Telafer Yaşar Cami,,37.772479,32.508621,,
713d,Telafer Yaşar Cami,,37.772548,32.50863,,
714a,Atılgan Cd,,37.789181,32.524836,,
714d,Atılgan Cd,,37.7892,32.524702,,
715a,Zemin,,37.792748,32.523082,,
715d,Zemin,,37.792691,32.522985,,
716a,Aybahçe Toki İlkokulu,,37.7948,32.521934,,
716d,Aybahçe Toki İlkokulu,,37.794766,32.521832,,
717a,15346. Sk,,37.76892,32.519102,,
717d,15346. Sk,,37.76902,32.519091,,
718a,15352. Sk,,37.77004,32.52283,,
718d,15352. Sk,,37.770175,32.522825,,
719a,Murat Hüdavendigar Cami,,37.7775083,32.523675,,
719d,Murat Hüdavendigar Cami,,37.7774,32.5239083,,
720a,15369. Sk,,37.77125,32.527304,,
720d,15369. Sk,,37.7714583,32.5273,,
721a,15289. Sk,,37.7794083,32.5211,,
721d,15289. Sk,,37.779525,32.52105,,
722a,Çamlıca,,37.7784917,32.5194334,,
722d,Çamlıca,,37.778575,32.519375,,
723a,15327. Sk,,37.7773417,32.5174083,,
723d,15327. Sk,,37.7773917,32.51725,,
724a,15319. Sk,,37.7758083,32.5147,,
724d,15319. Sk,,37.7759417,32.5146917,,
725a,15437. Sk,,37.7742917,32.5119083,,
725d,15437. Sk,,37.7743583,32.511925,,
726a,Bahar Gülü,,37.7728417,32.5093,,
726d,Bahar Gülü,,37.7728583,32.50925,,
727a,Telafer İlkokulu,,37.7702417,32.5104083,,
727d,Telafer İlkokulu,,37.770225,32.5103417,,
728a,Hacı Bayram Veli 1,,37.7672333,32.5121583,,
728d,Hacı Bayram Veli 1,,37.7672834,32.512075,,
729a,Hacı Bayram Veli 2,,37.7628833,32.5121833,,
729d,Hacı Bayram Veli 2,,37.7629,32.5121,,
72a,Akşam Sefası,,37.800486,32.427182,,
72d,Akşam Sefası,,37.800526,32.42708,,
730a,Hendek,,37.764344,32.520856,,
730d,Hendek,,37.7643667,32.5205917,,
731a,Abdülhamit,,37.761649,32.522422,,
731d,Abdülhamit,,37.761731,32.522116,,
732a,15612. Sk,,37.759704,32.520663,,
732d,15612. Sk,,37.7597583,32.5203334,,
733a,15595. Sk,,37.758108,32.516752,,
733d,15595. Sk,,37.7583417,32.5166833,,
734a,Bosna Hersek,,37.756508,32.512385,,
734d,Bosna Hersek,,37.7567417,32.5123667,,
735a,15642. Sk,,37.75528,32.50803,,
735d,15642. Sk,,37.7554583,32.5079333,,
736a,Alakova Bosna Hersek,,37.753933,32.503953,,
736d,Alakova Bosna Hersek,,37.754125,32.50385,,
737a,Kutsal,,37.7643417,32.5056083,,
737d,Kutsal,,37.76415,32.50575,,
738a,17433. Sk,,37.7013,32.4859334,,
738d,17433. Sk,,37.7011166,32.485925,,
739a,Kılıç,,37.6765917,32.469425,,
739d,Kılıç,,37.6763583,32.4693583,,
73a,Lalebahçe,,37.832386,32.428885,,
73d,Lalebahçe,,37.832389,32.428664,,
740a,Kayhüyük Konak 1,,37.653375,32.4543417,,
740d,Kayhüyük Konak 1,,37.6530417,32.454225,,
741a,15531. Sk,,37.7666083,32.504575,,
741d,15531. Sk,,37.766625,32.504625,,
742a,Farabi,,37.769525,32.502425,,
742d,Farabi,,37.7694916,32.5025917,,
743a,15493. Sk,,37.76765,32.514676,,
743d,15493. Sk,,37.767597,32.5147354,,
744a,115627. Sk,,37.759922,32.512455,,
744d,115627. Sk,,37.759911,32.512369,,
745a,Kutsal Cd,,37.764896,32.512459,,
745d,Kutsal Cd,,37.764707,32.512301,,
747a,Esfendiyar,,37.7720166,32.5171417,,
747d,Esfendiyar,,37.7720916,32.5169833,,
748a,15337. Sk,,37.773525,32.5210083,,
748d,15337. Sk,,37.7735583,32.5207167,,
749a,15361. Sk,,37.775349,32.524648,,
749d,15361. Sk,,37.7752,32.524799,,
74a,Dibekbaşı,,37.84997,32.424584,,
74d,Dibekbaşı,,37.849925,32.424633,,
750a,Taşcı,,37.692938,32.484104,,
750d,Taşcı,,37.692965,32.48426,,
751a,Çevre Yolu 2,,37.853655,32.544888,,
751d,Çevre Yolu 2,,37.853615,32.545237,,
752a,Kongun,,37.850938,32.469787,,
753a,Selim Sultan Şehitler Mezarlığı,,37.839848,32.516371,,
753d,Selim Sultan Şehitler Mezarlığı,,37.839761,32.516301,,
754a,Selvi,,37.837375,32.51916,,
754d,Selvi,,37.837325,32.51916,,
755a,Ruh,,37.83545,32.52101,,
755d,Ruh,,37.8354,32.52101,,
756a,Şehit Bayram Kut,,37.8331917,32.5227916,,
756d,Şehit Bayram Kut,,37.8331917,32.522675,,
757a,Çapacı,,37.8297417,32.5257083,,
757d,Çapacı,,37.82965,32.5257417,,
758a,Şehit Dursunali Tutar,,37.828325,32.5271,,
758d,Şehit Dursunali Tutar,,37.8282583,32.5271417,,
759a,Çifte,,37.823325,32.53309,,
759d,Çifte,,37.8233,32.5330666,,
75a,Yorgancı,,37.849132,32.427284,,
75d,Yorgancı,,37.849244,32.427354,,
760a,Munzur Dağı,,37.8216917,32.535125,,
760d,Munzur Dağı,,37.8216917,32.535025,,
761a,Şelale,,37.8201083,32.538,,
761d,Şelale,,37.8201083,32.537925,,
762a,Hayrat,,37.8197083,32.540075,,
762d,Hayrat,,37.8196083,32.540075,,
763a,Candan,,37.8184933,32.54505,,
763d,Candan,,37.8184333,32.54505,,
764a,Arifhane,,37.818945,32.5497583,,
764d,Arifhane,,37.818875,32.5497583,,
766d,Kosova,,37.815904,32.557559,,
767d,Mevlana Koruluğu,,37.813313,32.557789,,
768d,Çizgi,,37.813195,32.555263,,
769d,İklim,,37.812686,32.551867,,
76a,Kazanbendi,,37.847233,32.427933,,
76d,Kazanbendi,,37.84735,32.4279183,,
770d,Sohbet,,37.815095,32.550059,,
771a,Akran,,37.8184333,32.53515,,
771d,Akran,,37.8184917,32.5352417,,
772a,Karaaslan Küçük Cami,,37.8175583,32.5326083,,
772d,Karaaslan Küçük Cami,,37.8176583,32.53265,,
773a,Kayhüyük Konak 2,,37.6478583,32.4507417,,
773d,Kayhüyük Konak 2,,37.6475917,32.4506583,,
774a,9 Nolu Sağlık Ocağı,,37.8191666,32.5225333,,
774d,9 Nolu Sağlık Ocağı,,37.8192166,32.5225333,,
775a,Kayhüyük Giriş,,37.6436833,32.4483167,,
775d,Kayhüyük Giriş,,37.6435,32.4484833,,
776a,Tekintaş,,37.814886,32.52622,,
776d,Tekintaş,,37.814867,32.526134,,
777a,Kayalık,,37.811034,32.526762,,
777d,Kayalık,,37.811023,32.526665,,
778a,Tahsin,,37.8074,32.5275917,,
778d,Tahsin,,37.8075167,32.5274666,,
779a,Uzungöl,,37.8031667,32.5281667,,
779d,Uzungöl,,37.8031833,32.5280667,,
77a,Yorgancı Cami,,37.843417,32.426442,,
77d,Yorgancı Cami,,37.843466,32.426329,,
780a,Şanver,,37.8008583,32.5281166,,
780d,Şanver,,37.80085,32.5280334,,
781a,Açılış,,37.798799,32.528092,,
781d,Açılış,,37.798788,32.527985,,
782a,Haber,,37.7991166,32.5300667,,
782d,Haber,,37.7990667,32.5300833,,
783a,Uzun Gazi,,37.793311,32.528251,,
783d,Uzun Gazi,,37.793311,32.528151,,
784a,Kasırga,,37.795913,32.528426,,
784d,Kasırga,,37.795973,32.528395,,
785a,Halife Ömer Cami,,37.7956412,32.5317537,,
785d,Halife Ömer Cami,,37.7957366,32.53175,,
786a,Dindar,,37.792647,32.531823,,
786d,Dindar,,37.792447,32.531823,,
787a,Balıklı,,37.790205,32.533694,,
787d,Balıklı,,37.790205,32.533594,,
788a,Tacip,,37.793324,32.536002,,
788d,Tacip,,37.793324,32.536253,,
789a,Çıracı,,37.7924917,32.5397083,,
789d,Çıracı,,37.7925917,32.539725,,
78a,Çakılırmak,,37.840075,32.425241,,
78d,Çakılırmak,,37.8402333,32.42505,,
790a,Tepeoğlu,,37.7934834,32.5427167,,
790d,Tepeoğlu,,37.793525,32.54255,,
791a,Demir,,37.79675,32.5429167,,
791d,Demir,,37.7968,32.54275,,
792a,Hazine,,37.7997,32.5431667,,
792d,Hazine,,37.7997667,32.5429833,,
793a,Ağadivanı,,37.8028917,32.5435417,,
793d,Ağadivanı,,37.8029416,32.5433917,,
794a,Taşdelen,,37.8047417,32.5416083,,
794d,Taşdelen,,37.8047166,32.5415333,,
795a,Kayhüyük,,37.6413083,32.4480084,,
795d,Kayhüyük,,37.641175,32.4480084,,
796a,Ahdi,,37.801225,32.537475,,
796d,Ahdi,,37.801075,32.5374083,,
797a,Koçyaka,,37.8044833,32.5386666,,
797d,Koçyaka,,37.80445,32.538725,,
798a,Çaylızade,,37.78664,32.527915,,
798d,Çaylızade,,37.787049,32.528554,,
799a,Celalettin Karatay Lisesi,,37.787421,32.533002,,
799d,Celalettin Karatay Lisesi,,37.787521,32.533003,,
79a,Kuyulu,,37.838511,32.424414,,
79d,Kuyulu,,37.838572,32.42443,,
7d,Şebi Arus,,37.875775,32.48664,,
800a,Vural,,37.8025,32.53015,,
800d,Vural,,37.8025833,32.5300834,,
801a,Birey,,37.8074333,32.5315917,,
801d,Birey,,37.8074583,32.5314583,,
802a,Şefaat,,37.80905,32.5320083,,
802d,Şefaat,,37.8091083,32.5320083,,
803a,Deryalı,,37.8122333,32.533975,,
803d,Deryalı,,37.8123583,32.5337417,,
804a,Kasvetli,,37.817061,32.530018,,
804d,Kasvetli,,37.816967,32.530061,,
805a,Karaaslan Cumhuriyet İlkokulu,,37.8155167,32.531725,,
805d,Karaaslan Cumhuriyet İlkokulu,,37.8155167,32.5316083,,
806a,Bağdibi,,37.856479,32.637956,,
806d,Bağdibi,,37.856807,32.638106,,
807a,Adana Yolu Şehir Hastanesi Giriş,,37.859285,32.546192,,
807d,Adana Yolu Şehir Hastanesi Giriş,,37.859435,32.546551,,
808a,Çevre Yolu 5,,37.865121,32.547512,,
808d,Çevre Yolu 5,,37.86499,32.547951,,
809a,Çevre Yolu 6,,37.872961,32.548047,,
809d,Çevre Yolu 6,,37.872963,32.548477,,
80a,Kırbağlar,,37.838591,32.422258,,
80d,Kırbağlar,,37.8383917,32.4217833,,
810a,Uluırmak Kumocakları Cami,,37.831841,32.519606,,
810d,Uluırmak Kumocakları Cami,,37.832004,32.519311,,
811a,Mehmet Oktay,,37.8252417,32.5236917,,
811d,Mehmet Oktay,,37.825225,32.5236583,,
812a,İhlas,,37.826575,32.526425,,
812d,İhlas,,37.8263917,32.5266083,,
813a,Sarp Dağı,,37.8291917,32.5284583,,
813d,Sarp Dağı,,37.8290083,32.528675,,
814a,Zeytin Ağacı,,37.8329084,32.5316583,,
814d,Zeytin Ağacı,,37.832725,32.5318583,,
815a,Erciyes,,37.8303083,32.5338417,,
815d,Erciyes,,37.8303417,32.5338084,,
816a,Amberçiçeği,,37.8284833,32.535725,,
816d,Amberçiçeği,,37.8284584,32.5356667,,
817a,Konutlu,,37.8283167,32.5380667,,
817d,Konutlu,,37.8283,32.5380334,,
818a,Kalem,,37.8273083,32.5411917,,
818d,Kalem,,37.8273583,32.5411,,
819a,Tomurcuk,,37.824082,32.541707,,
819d,Tomurcuk,,37.824076,32.541616,,
81a,Uhut,,37.837498,32.420407,,
81d,Uhut,,37.837576,32.420374,,
820a,Ayşe Hüseyin Özkan İlkokulu,,37.820878,32.54219,,
820d,Ayşe Hüseyin Özkan İlkokulu,,37.820918,32.542061,,
821a,Tozan,,37.8279416,32.5210583,,
821d,Tozan,,37.8280583,32.520875,,
822a,Karaaslan Kumocağı,,37.8298416,32.5192083,,
822d,Karaaslan Kumocağı,,37.8298333,32.519175,,
823a,Koçaklar,,37.8477334,32.5215,,
823d,Koçaklar,,37.84765,32.521639,,
824a,Erdemşah,,37.8468583,32.51893,,
824d,Erdemşah,,37.846803,32.519045,,
825a,Sihirli,,37.8460666,32.5157,,
825d,Sihirli,,37.846002,32.515819,,
826a,Kubak Cami,,37.8443667,32.51584,,
826d,Kubak Cami,,37.844346,32.515947,,
827a,Beğendi,,37.8423167,32.51695,,
827d,Beğendi,,37.842313,32.517079,,
828a,Habeşli,,37.8405583,32.51791,,
828d,Habeşli,,37.840283,32.517986,,
829a,Çevre Yolu 7,,37.876675,32.547475,,
829d,Çevre Yolu 7,,37.8766,32.54713,,
82a,Alavardı Mimar Sinan Cami,,37.8735083,32.4621333,,
82d,Alavardı Mimar Sinan Cami,,37.8735416,32.462275,,
830a,Tarz,,37.8377417,32.5288,,
830d,Tarz,,37.83746,32.52878,,
831a,Ayvacık,,37.8358916,32.52449,,
831d,Ayvacık,,37.83566,32.52462,,
832d,Sağlamer,,37.841475,32.51443,,
833d,Sunay,,37.844325,32.51206,,
834d,Galebe,,37.8468083,32.50976,,
835a,Cemre,,37.8413084,32.52036,,
835d,Cemre,,37.841296,32.520212,,
836a,Hacı Bali Cami,,37.84175,32.52445,,
836d,Hacı Bali Cami,,37.841835,32.524375,,
837a,Kocaoğlu,,37.8410333,32.5286,,
837d,Kocaoğlu,,37.841126,32.528489,,
838a,Mine,,37.8401083,32.53153,,
838d,Mine,,37.840114,32.531413,,
839a,Sarı Müsevvit Cami,,37.861251,32.505167,,
839d,Sarı Müsevvit Cami,,37.861251,32.505217,,
83a,Celali,,37.8740166,32.4602834,,
83d,Celali,,37.8741083,32.4603083,,
841a,Yeniköy,,37.8592583,32.50786,,
841d,Yeniköy,,37.8592583,32.50791,,
842a,Soylu,,37.8575083,32.5104,,
842d,Soylu,,37.8575083,32.51058,,
843a,Bahadır,,37.8559583,32.51275,,
843d,Bahadır,,37.8559583,32.51296,,
844a,Şehit Emine Hanım,,37.8544417,32.515,,
844d,Şehit Emine Hanım,,37.8544417,32.51514,,
845a,Seyahat,,37.852575,32.5178,,
845d,Seyahat,,37.852575,32.51798,,
846a,Hasta Mehmet Cami,,37.8510083,32.52,,
846d,Hasta Mehmet Cami,,37.8510083,32.52013,,
847a,Mengene Ak Cami,,37.8488583,32.52284,,
847d,Mengene Ak Cami,,37.8488583,32.52299,,
848a,Karakaya,,37.8466417,32.52658,,
848d,Karakaya,,37.8466417,32.52672,,
849a,Sarı Cami,,37.844675,32.5297,,
849d,Sarı Cami,,37.844675,32.52982,,
84a,Çorum,,37.8741666,32.4571,,
84d,Çorum,,37.8742667,32.4571334,,
850a,Kirazdalı,,37.842875,32.53284,,
850d,Kirazdalı,,37.842875,32.53295,,
851a,Karakulak Birlik Cami,,37.8418583,32.5347,,
851d,Karakulak Birlik Cami,,37.8418583,32.53481,,
852a,Tahirbaba,,37.8401917,32.53708,,
852d,Tahirbaba,,37.8402166,32.53737,,
853a,Sağlamdağ,,37.8384083,32.53974,,
853d,Sağlamdağ,,37.838525,32.53986,,
854a,Dervişhan,,37.8363917,32.54248,,
854d,Dervişhan,,37.8364,32.54273,,
855a,Kainat,,37.83407004607855,32.5457364320755,,
855d,Kainat,,37.834112413725904,32.545897364616394,,
856a,Sadrettin Cami,,37.832625,32.54842,,
856d,Sadrettin Cami,,37.8327083,32.54854,,
857a,Saraçoğlu Birlik Cami,,37.8309417,32.55178,,
857d,Saraçoğlu Birlik Cami,,37.831025,32.55191,,
858a,Çiller,,37.828975,32.55578,,
858d,Çiller,,37.829075,32.55589,,
859a,Telsiz,,37.8275,32.55887,,
859d,Telsiz,,37.827575,32.55897,,
85a,Ezine,,37.8737,32.4539833,,
85d,Ezine,,37.8738,32.4541,,
860a,Saraçoğlu Mezarlığı,,37.82655,32.56318,,
860d,Saraçoğlu Mezarlığı,,37.8266667,32.56315,,
861a,Yeni Pazar,,37.8259834,32.56555,,
861d,Yeni Pazar,,37.8260833,32.56558,,
862a,Bahçeli,,37.824225,32.57219,,
862d,Bahçeli,,37.8242417,32.57237,,
863a,Yazıköy,,37.822825,32.57695,,
863d,Yazıköy,,37.8228833,32.57707,,
864a,Mahmut Efendi Cami,,37.8223,32.579545,,
864d,Mahmut Efendi Cami,,37.8224,32.57945,,
865a,Çevre Yolu 8,,37.880462,32.545291,,
865d,Çevre Yolu 8,,37.880542,32.545591,,
866a,Erbain,,37.821625,32.58402,,
866d,Erbain,,37.821775,32.58422,,
867a,Adaş,,37.8207667,32.58857,,
867d,Adaş,,37.8207667,32.58874,,
868a,Zehradar,,37.8196583,32.59287,,
868d,Zehradar,,37.819775,32.593,,
869a,Kanarsu,,37.8188583,32.59603,,
869d,Kanarsu,,37.818925,32.59645,,
86a,Ataman,,37.8738667,32.4513917,,
86d,Ataman,,37.8739833,32.4514083,,
870a,Seyfettin,,37.81785,32.59958,,
870d,Seyfettin,,37.817925,32.59969,,
871a,Sultan Fatih,,37.816592,32.604728,,
871d,Sultan Fatih,,37.816679,32.604749,,
872a,Ayaslı,,37.81615,32.60767,,
872d,Ayaslı,,37.8162917,32.60786,,
873a,Davetli,,37.8145334,32.6183,,
873d,Davetli,,37.8146333,32.61847,,
874a,Kadı Şehri,,37.81385,32.62375,,
874d,Kadı Şehri,,37.8137,32.62388,,
875a,Gözüaçık,,37.8129083,32.62864,,
875d,Gözüaçık,,37.8129583,32.62892,,
876a,Haslet,,37.8107083,32.63436,,
876d,Haslet,,37.810725,32.63459,,
877a,Barboros,,37.8055917,32.64613,,
877d,Barboros,,37.8056166,32.64637,,
878a,İyisoy,,37.8040833,32.64962,,
878d,İyisoy,,37.8040333,32.64998,,
879a,Saraçoğlu 1,,37.8023417,32.65358,,
879d,Saraçoğlu 1,,37.802325,32.65389,,
87a,Zeka,,37.875375,32.4475583,,
87d,Zeka,,37.8755417,32.447525,,
880a,14641. Sk,,37.7988334,32.66137,,
881a,Serincan,,37.8399833,32.540825,,
882a,Perşembe,,37.844275,32.549508,,
882d,Perşembe,,37.844375,32.5495083,,
883a,Mehpare,,37.8571916,32.5229083,,
883d,Mehpare,,37.8570417,32.523175,,
884d,Erler Cami,,37.7980584,32.66394,,
885a,Bilici,,37.8154917,32.61217,,
885d,Bilici,,37.8156167,32.61213,,
886a,Arayıcı,,37.8189833,32.61302,,
887a,Nazif,,37.8229333,32.61422,,
888a,Vakur,,37.824075,32.61093,,
889a,Tiftik,,37.8236833,32.60897,,
88a,Sultan Veled Cami,,37.8765833,32.4442,,
88d,Sultan Veled Cami,,37.87675,32.4442667,,
890d,Balsırma,,37.8204166,32.60834,,
891a,Nedret,,37.818804,32.577161,,
891d,Nedret,,37.81892,32.576844,,
892a,Bolluk,,37.815275,32.57738,,
892d,Bolluk,,37.8152917,32.57733,,
893a,Bulur,,37.81725,32.58194,,
893d,Bulur,,37.81725,32.58189,,
894a,Kırmızıgül,,37.81635,32.58643,,
894d,Kırmızıgül,,37.81635,32.58635,,
895a,Arısütü,,37.8155,32.5902,,
895d,Arısütü,,37.81545,32.5903,,
896a,Adas,,37.81535,32.59332,,
896d,Adas,,37.815375,32.59329,,
897d,Davut,,37.814575,32.59579,,
898a,Davul,,37.8160333,32.59747,,
898d,Davul,,37.816009,32.59751,,
899a,Hürmetli,,37.8150916,32.58066,,
89a,Soner,,37.877366,32.441851,,
89d,Soner,,37.8774833,32.442,,
8d,Adalhan,,37.8739083,32.4842584,,
900a,Yakacık,,37.826875,32.56943,,
900d,Yakacık,,37.8269083,32.56946,,
901a,Gürkan,,37.8284,32.57345,,
901d,Gürkan,,37.8284,32.57349,,
902a,Saygı,,37.82835,32.57598,,
902d,Saygı,,37.8283583,32.57602,,
903a,Ormancı,,37.8279717,32.57977,,
903d,Ormancı,,37.8277517,32.57977,,
904a,Tekirdağ,,37.82775,32.58382,,
904d,Tekirdağ,,37.8277667,32.58387,,
905a,Nakış Ören,,37.8279333,32.59057,,
905d,Nakış Ören,,37.8279666,32.59058,,
906a,Ovakent,,37.82725,32.59318,,
906d,Ovakent,,37.8272167,32.59319,,
907a,Mabut,,37.82524,32.594305,,
907d,Mabut,,37.825332,32.5943487,,
908a,Selçuklu Bel. Uluslar Arası Spor Merk.,,37.942473,32.487232,,
909a,Ahuşen,,37.941749,32.482945,,
90a,Mümine Hatun,,37.87885,32.4392,,
90d,Mümine Hatun,,37.8787417,32.439325,,
910a,Büyükkeçeciler Sk.,,37.935729,32.480553,,
912a,Erişkin Arındırma Merkezi,,37.993439,32.479383,,
912d,Erişkin Arındırma Merkezi,,37.993365,32.479448,,
914a,Aksekili,,37.8411083,32.53727,,
914d,Aksekili,,37.841425,32.53726,,
915a,Balçelebi,,37.8423417,32.54008,,
915d,Balçelebi,,37.8427917,32.54044,,
916a,Adana Çevre Yolu,,37.8445833,32.54289,,
916d,Adana Çevre Yolu,,37.8445917,32.54251,,
917a,Petrolcü,,37.846772,32.544524,,
917d,Petrolcü,,37.846984,32.544432,,
918a,Şehit Abdullah Şimşek,,37.8458583,32.54693,,
918d,Şehit Abdullah Şimşek,,37.845875,32.54707,,
919a,Hamit,,37.844925,32.54929,,
91a,Ayanbey Cami,,37.853836,32.427207,,
91d,Ayanbey Cami,,37.853865,32.426999,,
920a,Atlas,,37.845575,32.55278,,
920d,Atlas,,37.845675,32.55278,,
921a,Yokuşbaşı,,37.845133,32.55667,,
921d,Yokuşbaşı,,37.8452333,32.55667,,
922a,Kemal Katıtaş İlkokulu,,37.844566,32.56043,,
922d,Kemal Katıtaş İlkokulu,,37.8446666,32.56043,,
923a,Hançer,,37.84375,32.56402,,
923d,Hançer,,37.84381,32.56403,,
924a,İdil,,37.842152,32.567376,,
924d,İdil,,37.842154,32.567446,,
925a,İstiklal Hayber Cami,,37.84,32.56654,,
925d,İstiklal Hayber Cami,,37.84,32.56673,,
926a,Aktutan,,37.837242,32.565391,,
926d,Aktutan,,37.837346,32.565417,,
927a,Altıntoprak,,37.8342417,32.56444,,
927d,Altıntoprak,,37.834241,32.56464,,
928a,Derman,,37.8307167,32.56295,,
928d,Derman,,37.830516,32.56295,,
929a,Yavuz,,37.831569,32.559608,,
929d,Yavuz,,37.831516,32.559528,,
92a,Saraybağlar,,37.86715,32.4282,,
92d,Saraybağlar,,37.8670333,32.42815,,
930a,Alandüzü,,37.832675,32.5565,,
930d,Alandüzü,,37.832575,32.5563,,
931a,Ulak Cami,,37.8337417,32.55394,,
931d,Ulak Cami,,37.833641,32.55394,,
932a,Akyıldız,,37.835725,32.54996,,
932d,Akyıldız,,37.835625,32.54986,,
933a,Kasabalı Cami,,37.8383583,32.5498,,
933d,Kasabalı Cami,,37.838158,32.54978,,
934a,Vilayet,,37.8399617,32.54707,,
934d,Vilayet,,37.839961,32.54687,,
935a,Vilayetli,,37.8409083,32.54535,,
935d,Vilayetli,,37.840808,32.54535,,
936a,Verimli,,37.843225,32.54722,,
936d,Verimli,,37.843225,32.54682,,
937a,Bakraçlı,,37.858587,32.510486,,
937d,Bakraçlı,,37.858568,32.510604,,
938a,Gamzeli,,37.859725,32.51188,,
938d,Gamzeli,,37.8597583,32.51189,,
939a,Akik,,37.858171,32.515089,,
939d,Akik,,37.858084,32.515067,,
93a,Serami,,37.8676,32.4316667,,
93d,Serami,,37.8674916,32.4315583,,
940a,Yaprak,,37.85705,32.51755,,
940d,Yaprak,,37.8570917,32.51761,,
941a,Yahşi Halife,,37.859075,32.51931,,
942a,Çarıklar Vatan Cd,,37.652984,32.562018,,
942d,Çarıklar Vatan Cd,,37.652927,32.56206,,
943a,İstiklal,,37.8494667,32.54422,,
943d,İstiklal,,37.84948,32.54385,,
944a,Lafza,,37.846723,32.54764,,
944d,Lafza,,37.846725,32.547925,,
945a,Sazende,,37.84968,32.548332,,
945d,Sazende,,37.849605,32.548606,,
946a,Yolboyu,,37.851867,32.552017,,
947a,Akkoçak,,37.8518667,32.55593,,
947d,Akçakonak,,37.851966,32.55593,,
948a,Ardıç Önü,,37.8499083,32.56009,,
948d,Ardıç Önü,,37.849908,32.56029,,
949a,Akkocak,,37.8477166,32.56362,,
949d,Akkocak,,37.847816,32.56382,,
94a,Stad,,37.86655,32.4840917,,
94d,Stad,,37.8667,32.484,,
950a,Yol Geçen,,37.846129,32.56671,,
950d,Yol Geçen,,37.846203,32.566759,,
951a,Bilal Habeşi Cami,,37.835206,32.575851,,
951d,Bilal Habeşi Cami,,37.835102,32.575792,,
952a,Küçükkumköprü 1,,37.8365334,32.56835,,
952d,Küçükkumköprü 1,,37.8365833,32.56832,,
953a,Arpacık,,37.838026,32.56233,,
953d,Arpacık,,37.8382067,32.56225,,
954a,Tok,,37.838758,32.55967,,
954d,Tok,,37.8389583,32.55967,,
955a,Çifte Kubbe,,37.840491,32.55585,,
955d,Çifte Kubbe,,37.8406917,32.55585,,
956a,Yenisu,,37.842491,32.55227,,
956d,Yenisu,,37.8426916,32.55227,,
957d,Gözde,,37.844375,32.53891,,
958d,Gün,,37.8461083,32.53713,,
959d,Sarıcami,,37.848725,32.53386,,
95a,Serhat,,37.86355,32.4827833,,
95d,Serhat,,37.8638083,32.482975,,
960d,Saba,,37.851475,32.53067,,
961a,Karatay Belediyesi Tatlıcak Tesisleri 2,,37.865264,32.576737,,
961d,Karatay Belediyesi Tatlıcak Tesisleri 2,,37.865497,32.57678,,
962a,Çarıklar Üçyol,,37.648531,32.55765,,
963a,Üçler Mezarlığı,,37.8692417,32.5047,,
964a,Akçeşme İlkokulu,,37.8679657,32.506805,,
965a,Alakova Sanayi,,37.755759,32.525855,,
965d,Alakova Sanayi,,37.755759,32.525755,,
966a,Gürcan,,37.8643583,32.51531,,
966d,Gürcan,,37.864375,32.51536,,
967a,Küçük Cami,,37.8624583,32.51762,,
967d,Küçük Cami,,37.86226,32.517828,,
968a,Namık Kemal İlkokulu,,37.859829,32.520481,,
968d,Namık Kemal İlkokulu,,37.859829,32.520581,,
969a,Fatih Polis Merkezi,,37.8549917,32.52481,,
969d,Fatih Polis Merkezi,,37.8549917,32.52487,,
96a,Öğretmen Evleri,,37.862025,32.4787166,,
96d,Öğretmen Evleri,,37.8626083,32.4798167,,
970a,Avniye Cami,,37.853075,32.52785,,
970d,Avniye Cami,,37.8531583,32.52792,,
971a,Çelebi Cami,,37.8516417,32.53061,,
972a,Alişanağa Cami,,37.8498583,32.53425,,
973a,Karatay Fen Lisesi,,37.8487583,32.53812,,
974a,Yaşar Doğu İlkokulu,,37.8478667,32.54122,,
975a,Ödüllü,,37.8502667,32.54245,,
976a,Fatih Kuran Kursu,,37.8533,32.54305,,
976d,Fatih Kuran Kursu,,37.8533,32.543,,
977a,Gökgöz,,37.8555166,32.54291,,
977d,Gökgöz,,37.8554166,32.5428,,
978a,Çevre Yolu 9,,37.88385,32.5439917,,
978d,Çevre Yolu 9,,37.88379,32.54353,,
979a,Turizm Okulu,,37.859193,32.543048,,
979d,Turizm Okulu,,37.859229,32.542946,,
97a,Ebussuud Efendi,,37.8613583,32.4722,,
97d,Ebussuud Efendi,,37.8614084,32.4724583,,
980a,52 Nolu Sağlık Ocağı,,37.8556834,32.5385666,,
980d,52 Nolu Sağlık Ocağı,,37.855675,32.53844,,
981d,Milliler,,37.85381,32.537222,,
982d,Taştekin,,37.854379,32.533816,,
983d,Menzil,,37.854876,32.530387,,
984d,Dadak,,37.855311,32.527837,,
985d,Özbayat,,37.8556167,32.5256,,
986a,Başar,,37.8651166,32.5160167,,
986d,Başar,,37.8650334,32.5159833,,
987a,Ovaboğazı,,37.864075,32.5199333,,
987d,Ovaboğazı,,37.864025,32.5197167,,
988a,Haşim Baba,,37.8631,32.52345,,
988d,Haşim Baba,,37.863075,32.5231583,,
989d,Rüstem Şirvani,,37.8621,32.5256583,,
98a,Mercan,,37.8631083,32.47145,,
98d,Mercan,,37.8631,32.4715197,,
990d,Baygın,,37.8594666,32.5248583,,
991a,Suluoluk,,37.8585166,32.5281417,,
991d,Suluoluk,,37.8584583,32.527925,,
992a,Erkal,,37.8580833,32.5316667,,
992d,Erkal,,37.8580083,32.5315917,,
993a,Katmer,,37.857574,32.534245,,
993d,Katmer,,37.857682,32.534261,,
994a,Şuhudi Mehmet,,37.857176,32.537582,,
994d,Şuhudi Mehmet,,37.857106,32.537507,,
995a,Koyunoğlu,,37.8675084,32.5106416,,
995d,Koyunoğlu,,37.8674166,32.5106834,,
996a,Kışlaönü 2,,37.8670167,32.5135167,,
996d,Kışlaönü 2,,37.8669,32.51345,,
997a,Tünelboğazı,,37.86695,32.5178833,,
997d,Tünelboğazı,,37.8668167,32.5178417,,
998a,Karatay Lisesi,,37.8669,32.5217833,,
998d,Karatay Lisesi,,37.8667333,32.521625,,
999a,Ormanağzı,,37.8667417,32.52602,,
999d,Ormanağzı,,37.8666666,32.52602,,
99a,Necati Çetinkaya İlkokulu,,37.8644416,32.4739917,,
99d,Necati Çetinkaya İlkokulu,,37.8644083,32.4739917,,
9a,İhsaniye,,37.8728161,32.4814682,,
9d,İhsaniye,,37.8726667,32.4816667,,
t10a,Mta,,37.9653833,32.5146333,,
t10d,Mta,,37.9652917,32.514675,,
t11a,Elmalılı Hamdi,,37.9593083,32.513825,,
t11d,Elmalılı Hamdi,,37.9591167,32.51385,,
t12a,Medaş,,37.9539,32.513075,,
t12d,Medaş,,37.9538666,32.5131334,,
t13a,Otogar,,37.94899,32.51264,,
t13d,Otogar,,37.94895,32.51292,,
t15a,Erenkaya,,37.9439667,32.5119167,,
t15d,Erenkaya,,37.9444583,32.5120667,,
t16a,Binkonutlar,,37.9405667,32.5114167,,
t16d,Binkonutlar,,37.941,32.5115666,,
t17a,Eyüp Sultan,,37.9359417,32.5107083,,
t17d,Eyüp Sultan,,37.93635,32.5108667,,
t18a,1. Organize,,37.9287083,32.50905,,
t18d,1. Organize,,37.929175,32.5092416,,
t19a,Teknik Lise,,37.9245584,32.5078416,,
t19d,Teknik Lise,,37.9250667,32.5080333,,
t1a,Kampüs Hareket,,38.018957,32.513379,,
t1d,Kampüs Giriş,,38.018708,32.516018,,
t20a,Sakarya,,37.9162334,32.505875,,
t20d,Sakarya,,37.9165,32.5060334,,
t21a,Şehitler Cami,,37.9118916,32.5009666,,
t21d,Şehitler Cami,,37.9118083,32.5008917,,
t22a,Aydınlık,,37.90594,32.49556,,
t22d,Aydınlık,,37.90591,32.49556,,
t24a,Eski Sanayi,,37.8997834,32.4897833,,
t24d,Eski Sanayi,,37.8997333,32.49005,,
t25a,Kunduracılar,,37.893725,32.4974917,,
t25d,Kunduracılar,,37.893125,32.497975,,
t26a,Kule,,37.8882333,32.4951333,,
t26d,Kule,,37.8875583,32.4948083,,
t27a,Nalçacı,,37.882075,32.489675,,
t27d,Nalçacı,,37.8814,32.4893167,,
t28a,Belediye,,37.876675,32.4884584,,
t28d,Belediye,,37.8767,32.48845,,
t29a,Kültürpark,,37.874975,32.491175,,
t29d,Kültürpark,,37.8751583,32.4911583,,
t2a,Kayalar Cami,,38.0137833,32.5171666,,
t2d,Kayalar Cami,,38.0137333,32.5173083,,
t30a,Zafer,,37.8721,32.4902667,,
t31d,Alaaddin,,37.871873,32.493851,,
t32a,Tıp Fakültesi,,38.0225667,32.5124583,,
t32d,Tıp Fakültesi,,38.0227833,32.5120167,,
t33a,Hukuk Fakültesi,,38.0247417,32.5067417,,
t33d,Mühendislik Fakültesi,,38.0276083,32.5111417,,
t34a,Fen Edebiyat,,38.026925,32.5080083,,
t36a,Hükümet Meydanı,,37.87196,32.49799,,
t36d,Hükümet Meydanı,,37.87202,32.49804,,
t37a,Mevlana,,37.8705,32.50673,,
t37d,Mevlana,,37.8706,32.50667,,
t38a,Mevlana Kültür Merkezi,,37.87047,32.51392,,
t38d,Mevlana Kültür Merkezi,,37.87056,32.51612,,
t39a,Fetih,,37.87007,32.52505,,
t39d,Fetih,,37.86999,32.52685,,
t3a,Bosna Hersek,,38.0098,32.5185333,,
t3d,Bosna Hersek,,38.0098667,32.5185833,,
t40a,Spor Ve Kongre Merkezi,,37.86887,32.53511,,
t40d,Spor Ve Kongre Merkezi,,37.86892,32.53649,,
t41a,Karşehir,,37.86878,32.54188,,
t41d,Karşehir,,37.86885,32.54188,,
t42a,Adliye,,37.86172,32.54295,,
t42d,Adliye,,37.86173,32.54304,,
t4a,Buzlukbaşı Köprüsü,,38.0028917,32.519625,,
t4d,Buzlukbaşı Köprüsü,,38.0028333,32.51965,,
t5a,Fırat,,37.9955833,32.5186417,,
t5d,Fırat,,37.9954834,32.5186667,,
t6a,Piri Reis,,37.9895,32.5177833,,
t6d,Piri Reis,,37.9893917,32.517825,,
t7a,Sancak,,37.9821667,32.5168166,,
t7d,Sancak,,37.9820667,32.51685,,
t8a,Japon Parkı,,37.9768583,32.5161417,,
t8d,Japon Parkı,,37.9767666,32.5162,,
t9a,Yazır,,37.9718833,32.51545,,
t9d,Yazır,,37.9717833,32.5155166,,
