stop_id,stop_name,stop_desc,stop_lat,stop_lon,zone_id,stop_url
1000a,Babadağı,,37.866175,32.5275417,,
1000d,Babadağı,,37.8661833,32.5274333,,
1001a,Taşkın Paşa,,37.863103,32.528414,,
1001d,Taşkın Paşa,,37.863067,32.52823719,,
1002a,Tütüncü,,37.8623417,32.52647,,
1002d,Tütüncü,,37.8625083,32.52643,,
1003a,Çayır Cami,,37.861663,32.530603,,
1003d,Çayır Cami,,37.86186,32.530716,,
1004a,Şirineli,,37.861214,32.533907,,
1004d,Şirineli,,37.86139,32.533929,,
1005a,Akgöl,,37.860929,32.536343,,
1005d,Akgöl,,37.8610267,32.53664,,
1006a,Cemil Çiçek,,37.86055,32.54037,,
1006d,Cemil Çiçek,,37.86075,32.54038,,
1007a,Gufran,,37.870287,32.535682,,
1007d,Gufran,,37.870245,32.535339,,
1008a,Adalet Sarayı,,37.8607083,32.54321,,
1008d,Adalet Sarayı,,37.8607167,32.54282,,
1009a,Yeniceler,,37.866588,32.543497,,
1009d,Yeniceler,,37.866579,32.543247,,
100a,Babil,,37.866743,32.475161,,
100d,Babil,,37.866737,32.475065,,
1010a,Akyokuş Kasrı,,37.879772,32.424767,,
1011a,Özbaşak,,37.8670167,32.5373,,
1011d,Özbaşak,,37.8669333,32.53732,,
1012a,Çifteler,,37.866925,32.53371,,
1012d,Çifteler,,37.86685,32.53368,,
1013a,Adalet Konutları,,37.8668084,32.53018,,
1013d,Adalet Konutları,,37.8667583,32.53008,,
1014a,Gaziler Derneği,,37.870606,32.510153,,
1014d,Gaziler Derneği,,37.872233,32.507606,,
1015d,Namık Paşa Cami,,37.871418,32.511983,,
1016a,Mevlana Kültür Merkezi,,37.8704,32.51578,,
1016d,Mevlana Kültür Merkezi,,37.8706,32.51588,,
1017a,Adile Sultan,,37.8703167,32.51942,,
1017d,Adile Sultan,,37.8705167,32.51942,,
1018a,Hacı Kalfa,,37.8700833,32.52402,,
1018d,Hacı Kalfa,,37.8702833,32.52397,,
1019a,Zeliha Seymen İlkokulu,,37.8696334,32.52813,,
1019d,Zeliha Seymen İlkokulu,,37.8698333,32.52809,,
101a,Havzan,,37.8674493,32.472535,,
101d,Havzan,,37.8674833,32.4725333,,
1020a,Spor Ve Kongre Merkezi,,37.8688333,32.53452,,
1020d,Spor Ve Kongre Merkezi,,37.86905,32.53408,,
1021a,Nefer,,37.8687167,32.53845,,
1021d,Nefer,,37.8689167,32.53847,,
1022a,Akraba,,37.868767,32.544158,,
1022d,Akraba,,37.868993,32.544142,,
1023a,İnebahtı,,37.868523,32.544614,,
1024a,Tiftikci (e),,37.8689167,32.5518,,
1024d,Tiftikci (e),,37.86915,32.55163,,
1025a,Hobi Bahçesi,,37.868525,32.55476,,
1025d,Hobi Bahçesi,,37.8687334,32.55482,,
1026a,Uluyatır,,37.86805,32.55789,,
1026d,Uluyatır,,37.868225,32.55839,,
1027a,İşbitiren,,37.86666884,32.566456,,
1027d,İşbitiren,,37.867094,32.566356,,
1028a,Fetihkent İlkokulu,,37.87595,32.5374083,,
1028d,Fetihkent İlkokulu,,37.876275,32.537325,,
1029a,Okyar,,37.866249,32.57027,,
1029d,Okyar,,37.866484,32.570407,,
102a,Oltu,,37.866741,32.469512,,
102d,Oltu,,37.866828,32.469443,,
1030a,Karatay Belediyesi Tatlıcak Tesisleri 1,,37.8658584,32.57299,,
1030d,Karatay Belediyesi Tatlıcak Tesisleri 1,,37.8661,32.57338,,
1031a,Taştepe,,37.864937,32.581329,,
1031d,Taştepe,,37.864594,32.581222,,
1032a,Türkan,,37.8636667,32.58768,,
1032d,Türkan,,37.86385,32.58783,,
1033a,Masal,,37.8630333,32.59196,,
1033d,Masal,,37.8632083,32.5922,,
1034a,Taşçılar (e),,37.8625833,32.59493,,
1034d,Taşçılar (e),,37.86275,32.59517,,
1035a,Bağlıca,,37.861275,32.60372,,
1035d,Bağlıca,,37.86145,32.60393,,
1036a,Yücesoy,,37.8605583,32.60843,,
1036d,Yücesoy,,37.860775,32.60841,,
1037a,Açma,,37.85877,32.61357,,
1037d,Açma,,37.8587217,32.61365,,
1038a,Tezer,,37.8588833,32.61965,,
1038d,Tezer,,37.8590333,32.61987,,
1039a,Kıvamlı,,37.85805,32.62522,,
1039d,Kıvamlı,,37.858275,32.62503,,
103a,5 Nolu Sağlık Ocağı,,37.8650166,32.4660833,,
103d,5 Nolu Sağlık Ocağı,,37.86525,32.4659167,,
1040a,Yeşilbursa,,37.8597,32.61353,,
1040d,Yeşilbursa,,37.86005,32.61351,,
1041a,Ovalı,,37.8571916,32.63248,,
1041d,Ovalı,,37.8573333,32.63283,,
1042a,Nazım,,37.8558667,32.64358,,
1042d,Nazım,,37.8560667,32.64375,,
1043a,Karabay,,37.8551167,32.65012,,
1043d,Karabay,,37.8553,32.65042,,
1044a,Kasımpatı,,37.854156,32.657225,,
1044d,Kasımpatı,,37.854571,32.656838,,
1045d,Batı,,37.703,32.57303,,
1046a,Toraman Cami,,37.8752417,32.5139917,,
1046d,Toraman Cami,,37.875325,32.5136583,,
1047a,Konya Ereğli 3,,37.8526,32.67095,,
1047d,Konya Ereğli 3,,37.8528,32.67103,,
1048a,Bakırtolu Yolu,,37.849061,32.701427,,
1048d,Bakırtolu Yolu,,37.84927,32.701417,,
1049a,Çarşamba Çayı 2,,37.847976,32.710821,,
1049d,Çarşamba Çayı 2,,37.848177,32.710772,,
104a,Adaletli,,37.8647083,32.469375,,
104d,Adaletli,,37.8647167,32.4691333,,
1050d,Konya Ereğli 1,,37.8470167,32.72088,,
1051d,Konya Ereğli 2,,37.8447,32.74181,,
1052d,Konya Ereğli 4,,37.84521,32.73694,,
1053a,Ayaz,,37.8792248,32.5119591,,
1053d,Ayaz,,37.8792083,32.511825,,
1054a,Sakyatan Girişi,,37.8391,32.7848166,,
1054d,Sakyatan Girişi,,37.839283,32.7847919,,
1055d,Çıngırık,,37.8424416,32.78444,,
1056d,Sakyatan Su Deposu,,37.8398583,32.78684,,
1057d,14401. Sk,,37.842,32.78879,,
1058d,Sakyatan Mahallesi,,37.8449,32.78863,,
1059d,Sakyatan,,37.8447583,32.78517,,
105a,İyigül,,37.8631334,32.4675,,
105d,İyigül,,37.863275,32.468086,,
1060d,Sakyatan Cami,,37.843925,32.78322,,
1061a,Bakırtolu Cami,,37.7929084,32.81531,,
1062a,Şatır Girişi,,37.7937,32.78188,,
1063a,Şatır Çocuk Parkı,,37.7916417,32.77964,,
1064a,Şatır Çıkışı,,37.7931,32.77822,,
1065a,Hacı Veyiszade Efendi,,37.830375,32.72503,,
1066a,Bakırtolu Kooperatif,,37.8378917,32.71856,,
1067a,Beş Evler,,37.8393917,32.71727,,
1068a,Kumral,,37.8787333,32.5368667,,
1068d,Kumral,,37.878579,32.536872,,
1069a,Akın,,37.8528666,32.61273,,
1069d,Akın,,37.8527166,32.61288,,
106a,Taşdemir,,37.863,32.4643333,,
106d,Taşdemir,,37.8631417,32.4644666,,
1070a,Şadan,,37.85,32.61225,,
1070d,Şadan,,37.84995,32.61242,,
1071a,Malazgirt,,37.8469833,32.61188,,
1072a,Caiz,,37.8451666,32.61265,,
1073a,Hasır,,37.843275,32.61683,,
1074a,Tayyarlar,,37.8438667,32.61963,,
1075a,Apalı,,37.8476,32.62267,,
1076a,Kudretli,,37.847676,32.628185,,
1077a,Harmandüzü,,37.847604,32.631437,,
1078a,Gülbeyaz,,37.8510417,32.63127,,
1079a,Kırçiçeği,,37.8524583,32.62773,,
107a,Şehir,,37.861325,32.4647917,,
107d,Şehir,,37.861325,32.464575,,
1080a,Anlatım,,37.8538833,32.62197,,
1081a,Özsezgin,,37.8541167,32.6183,,
1082a,Hakim,,37.8514083,32.61827,,
1083a,Berat,,37.8496417,32.61853,,
1084a,Gözönü,,37.8495667,32.61523,,
1085a,İncekaya,,37.8609166,32.64523,,
1085d,İncekaya,,37.8609166,32.64533,,
1086a,Elisa,,37.8645667,32.6425,,
1087a,Bağlar,,37.8673417,32.58364,,
1087d,Bağlar,,37.8672667,32.58346,,
1088a,Hasbihal,,37.870425,32.58531,,
1088d,Hasbihal,,37.8705,32.58524,,
1089a,Kiremit,,37.8704,32.58712,,
1089d,Kiremit,,37.8704917,32.58712,,
108a,Bayrakçı Sanayi,,37.8593083,32.461525,,
108d,Bayrakçı Sanayi,,37.859425,32.461475,,
1090a,Esenköy,,37.867825,32.58706,,
1090d,Esenköy,,37.8677333,32.58707,,
1091a,Topluca,,37.8657667,32.5863,,
1091d,Topluca,,37.8658,32.58633,,
1092a,Ayçiçeği,,37.8652666,32.58855,,
1092d,Ayçiçeği,,37.8653167,32.58849,,
1093a,Terler,,37.8657083,32.59081,,
1093d,Terler,,37.86575,32.59082,,
1094a,Gülcü,,37.865025,32.59877,,
1094d,Gülcü,,37.8650417,32.59883,,
1095a,Bademyağı,,37.8635583,32.60419,,
1095d,Bademyağı,,37.863575,32.60424,,
1096a,Neyzen,,37.86535,32.60588,,
1096d,Neyzen,,37.86545,32.60583,,
1097a,Harabe,,37.8668667,32.60803,,
1097d,Harabe,,37.8669166,32.60815,,
1098a,Erdemir 4,,37.871178,32.611268,,
1098d,Erdemir 4,,37.8711583,32.61111,,
1099a,Özdemir,,37.8723,32.61218,,
1099d,Özdemir,,37.8722917,32.61223,,
109a,Dökme Tepe,,37.8575833,32.4570333,,
109d,Dökme Tepe,,37.857941,32.456955,,
10a,Millet,,37.869269,32.480426,,
10d,Millet,,37.869139,32.480683,,
1100a,Erdemir 1,,37.8714083,32.61512,,
1100d,Erdemir 1,,37.8713917,32.61516,,
1101a,Erdemir 2,,37.8695,32.61965,,
1101d,Erdemir 2,,37.8695417,32.61965,,
1102a,Erdemir 3,,37.8683083,32.62358,,
1102d,Erdemir 3,,37.8683083,32.62368,,
1103a,Atış Poligon Yolu,,37.8628084,32.62035,,
1103d,Atış Poligon Yolu,,37.8628,32.62041,,
1104a,Şehit Abdullah Aslan 1,,37.865561,32.634231,,
1104d,Şehit Abdullah Aslan 1,,37.865608,32.634243,,
110a,Ateşbaz,,37.8578917,32.453,,
110d,Ateşbaz,,37.858,32.4531333,,
1111a,Seyfullah,,37.87885,32.5332167,,
1111d,Seyfullah,,37.878711,32.533221,,
1112a,Celaliye,,37.8697583,32.5428,,
1112d,Celaliye,,37.8697583,32.543,,
1113a,Kardelen,,37.87035,32.5454167,,
1113d,Kardelen,,37.87029,32.5454167,,
1114a,Akviran,,37.8718667,32.546065,,
1114d,Akviran,,37.8718667,32.546125,,
1115a,Saydamlar,,37.8737183,32.5443583,,
1115d,Saydamlar,,37.8737583,32.5443583,,
1116a,İnce Mehmet,,37.8731667,32.540075,,
1116d,İnce Mehmet,,37.8732167,32.540075,,
1117a,Şeyh Ulema Yahşi Caddesi,,37.87421,32.5379417,,
1117d,Şeyh Ulema Yahşi Caddesi,,37.87425,32.5379417,,
1118a,Fetihkent,,37.8741333,32.5351583,,
1118d,Fetihkent,,37.8741833,32.5351583,,
1119a,Evliya Cami,,37.87364,32.53249,,
1119d,Evliya Cami,,37.8737,32.53242,,
111a,İki Çay Arası,,37.8578833,32.4502,,
111d,İki Çay Arası,,37.858025,32.45015,,
1120a,Yusuf İzzettin,,37.87846,32.531178,,
1120d,Yusuf İzzettin,,37.878401,32.531121,,
1121a,Fetih Cami,,37.8781583,32.5285583,,
1121d,Fetih Cami,,37.8779983,32.5285583,,
1122a,Hacı Veyiszade,,37.8774183,32.5259917,,
1122d,Hacı Veyiszade,,37.8774583,32.5259917,,
1123a,Şeyh Ulema Ovalı Cami,,37.8767683,32.5231083,,
1123d,Şeyh Ulema Ovalı Cami,,37.8768083,32.5231083,,
1124a,Kasım,,37.876244,32.519853,,
1124d,Kasım,,37.876143,32.519858,,
1125a,Hacı Emirzade,,37.8755017,32.5170833,,
1125d,Hacı Emirzade,,37.8755417,32.5170833,,
1126a,Yusuf Ağa Cami,,37.8750417,32.5149333,,
1127a,Zambaklı Cd 2,,37.817041,32.506992,,
1127d,Zambaklı Cd 2,,37.817022,32.506945,,
1128a,Köprübaşı,,37.8745583,32.5077,,
1128d,Köprübaşı,,37.874496,32.50771,,
1129a,Seyit İbrahim,,37.874112,32.5045,,
1129d,Seyit İbrahim,,37.874019,32.504511,,
112a,Yedek Irmak,,37.85695,32.4467,,
112d,Yedek Irmak,,37.8570833,32.4467666,,
1130a,Rumi,,37.871725,32.5045917,,
1131a,Küçükpınar,,37.818116,32.541251,,
1131d,Küçükpınar,,37.818092,32.541143,,
1132a,Akşamyıldızı,,37.824471,32.599246,,
1132d,Akşamyıldızı,,37.824541,32.59917,,
1133a,Hanefi,,37.818882,32.598596,,
1133d,Hanefi,,37.818872,32.598659,,
1134a,Vatan Sanayi (e),,37.867472,32.563301,,
1134d,Vatan Sanayi (e),,37.867172,32.563301,,
1135a,Yaylapınar Kaş Cami,,37.816703,32.498743,,
1135d,Yaylapınar Kaş Cami,,37.816739,32.498652,,
1136a,Sarnıç Cami,,37.876825,32.51205,,
1136d,Sarnıç Cami,,37.8767417,32.5121417,,
1137a,Şehit Muharrem Öksüz,,37.877625,32.5138083,,
1137d,Şehit Muharrem Öksüz,,37.877575,32.5138083,,
1138a,Şehit Azam Güdendede,,37.879225,32.5163,,
1138d,Şehit Azam Güdendede,,37.879175,32.5163,,
1139a,Şehit İbrahim Maral,,37.8811917,32.519525,,
1139d,Şehit İbrahim Maral,,37.881075,32.5195,,
113a,Fethiye,,37.8563083,32.4434417,,
113d,Fethiye,,37.8563834,32.4434333,,
1140a,Göreme,,37.882716,32.522073,,
1140d,Göreme,,37.8826583,32.521875,,
1141a,Bülbül,,37.8846417,32.5249,,
1141d,Bülbül,,37.8845217,32.5249,,
1142a,Garip Nasrullah Cami,,37.8861417,32.527825,,
1142d,Garip Nasrullah Cami,,37.8859917,32.527875,,
1143a,Halil Etem,,37.887483,32.530855,,
1143d,Halil Etem,,37.88732,32.530925,,
1144a,Hz. Yusuf Cami,,37.888755,32.533757,,
1144d,Hz. Yusuf Cami,,37.888872,32.53358,,
1145a,Göztepe Cami,,37.935204,32.436216,,
1145d,Göztepe Cami,,37.935105,32.436264,,
1146a,Çengilti Çıkışı,,38.001051,32.772334,,
1146d,Çengilti Çıkışı,,38.000816,32.772442,,
1147a,Atardamar,,37.890129,32.540522,,
1147d,Atardamar,,37.890529,32.541102,,
1148a,Hilal,,37.8865917,32.5423083,,
1148d,Hilal,,37.88662,32.54265,,
1149a,Yunus Emre,,37.851955,32.53624,,
1149d,Yunus Emre,,37.851915,32.536316,,
114a,Çağlayan,,37.854275,32.4393083,,
114d,Çağlayan,,37.8543417,32.4392083,,
1150a,Müzakere,,37.848372,32.533295,,
1150d,Müzakere,,37.848314,32.533365,,
1151a,Akçakaya,,37.846305,32.531321,,
1151d,Akçakaya,,37.846273,32.531386,,
1152a,Manolya,,38.008438,32.487312,,
1152d,Manolya,,38.008519,32.487076,,
1153a,Palmiye,,38.009796,32.490573,,
1153d,Palmiye,,38.009888,32.490605,,
1154a,Kırlangıç,,38.006783,32.492711,,
1154d,Kırlangıç,,38.006672,32.492816,,
1155a,Topkaya,,37.873735,32.536628,,
1155d,Topkaya,,37.8736967,32.5364345,,
1156a,Karma İlkokulu,,37.877951,32.495488,,
1157a,Cizreli,,37.879227,32.504231,,
1157d,Cizreli,,37.879191,32.504285,,
1158a,Lilyum,,38.006402,32.485802,,
1158d,Lilyum,,38.006545,32.485558,,
1159a,Kamelya,,38.006727,32.482773,,
1159d,Kamelya,,38.006619,32.482789,,
115a,Kehribar,,37.8534333,32.4377667,,
115d,Kehribar,,37.8535334,32.4376666,,
1160a,Fulya,,38.009636,32.481497,,
1160d,Fulya,,38.009707,32.48119,,
1161a,Ahmet Şuayip,,37.772936,32.408412,,
1161d,Ahmet Şuayip,,37.77288,32.408519,,
1162a,Estergon,,37.775503,32.410729,,
1162d,Estergon,,37.775524,32.410579,,
1163a,Motif,,37.778605,32.411078,,
1163d,Motif,,37.778529,32.410928,,
1164a,Mimoza,,38.006094,32.490283,,
1164d,Mimoza,,38.005957,32.490439,,
1165a,Mihman,,37.862431,32.643885,,
1166a,İpek,,37.891116,32.525002,,
1166d,İpek,,37.891114,32.524847,,
1167a,Horasanlı İlkokulu,,37.893142,32.526825,,
1167d,Horasanlı İlkokulu,,37.893263,32.526681,,
1168a,Tuğra,,37.984626,32.900764,,
1168d,Tuğra,,37.984563,32.900683,,
1169a,Hakkaniyet,,37.8973583,32.5321166,,
1169d,Hakkaniyet,,37.897288,32.531896,,
116a,Avgın,,37.8513,32.43475,,
116d,Avgın,,37.8515417,32.4351083,,
1170a,Keçeciler Son Durak Cami,,37.8989417,32.53515,,
1170d,Keçeciler Son Durak Cami,,37.898896,32.535023,,
1171a,Kısmet,,37.897725,32.5369083,,
1171d,Kısmet,,37.89773,32.53728,,
1172a,Çevik Kuvvet,,37.894015,32.538591,,
1172d,Çevik Kuvvet,,37.894369,32.539154,,
1173a,Başak,,37.890275,32.5337417,,
1173d,Başak,,37.890325,32.5334583,,
1174a,Açelya,,37.974068,32.507852,,
1174d,Açelya,,37.974239,32.508035,,
1175a,Anemon,,37.974685,32.503899,,
1175d,Anemon,,37.974793,32.503931,,
1176a,Feslegen,,37.974864,32.496957,,
1176d,Feslegen,,37.975012,32.496925,,
1177a,Tüzel,,37.8796584,32.537625,,
1177d,Tüzel,,37.879475,32.5374917,,
1178a,Döküm,,37.896391,32.528355,,
1178d,Döküm,,37.896247,32.528601,,
1179a,Çakırdoğan,,37.888625,32.5213333,,
1179d,Çakırdoğan,,37.8884583,32.5212417,,
117a,Çandır,,37.8499083,32.4309083,,
117d,Çandır,,37.8499416,32.4308417,,
1180a,Yediler Laleli Cami,,37.8874083,32.5195166,,
1180d,Yediler Laleli Cami,,37.8871583,32.5191917,,
1181a,Yediler Işıklar Cami,,37.885286,32.515749,,
1181d,Yediler Işıklar Cami,,37.885263,32.515878,,
1182a,Sarıkışla,,37.883647,32.512959,,
1182d,Sarıkışla,,37.883625,32.5131,,
1183a,Bağönü,,37.881875,32.5098583,,
1183d,Bağönü,,37.881725,32.50975,,
1184a,Keçeciler Cami,,37.8803584,32.506925,,
1184d,Keçeciler Cami,,37.8802083,32.5068083,,
1185a,Sarık,,37.885675,32.4999583,,
1185d,Sarık,,37.885675,32.4999983,,
1186a,Flora,,37.948994,32.519724,,
1186d,Flora,,37.948916,32.519778,,
1187a,Karacihan,,37.886933,32.504248,,
1187d,Karacihan,,37.88696,32.504145,,
1188a,Şehit Sadık Ortaokulu,,37.888846,32.506458,,
1188d,Şehit Sadık Ortaokulu,,37.888776,32.506522,,
1189a,Araplar Mezarlığı,,37.890235,32.508957,,
1189d,Araplar Mezarlığı,,37.890089,32.508963,,
118a,Karaciğan Cami,,37.859824,32.471251,,
118d,Karaciğan Cami,,37.859872,32.471074,,
1190a,Suyolu,,37.891778,32.511114,,
1190d,Suyolu,,37.891844,32.511023,,
1191a,Burhaniye,,37.893416,32.513533,,
1191d,Burhaniye,,37.893482,32.513453,,
1192a,Selimiye,,37.894956,32.515293,,
1192d,Selimiye,,37.895102,32.515132,,
1193a,Meftunlu,,37.897496,32.517375,,
1193d,Meftunlu,,37.897625,32.517255,,
1194a,Cevher Dudayev,,37.899957,32.51908,,
1194d,Cevher Dudayev,,37.899977,32.518774,,
1195a,Hasşehir,,37.9021583,32.5206833,,
1195d,Hasşehir,,37.902575,32.5208083,,
1196a,10424. Sk,,37.9045417,32.5227083,,
1196d,10424. Sk,,37.904725,32.5226583,,
1197a,Muhabir,,37.903625,32.524625,,
1197d,Muhabir,,37.9036166,32.52485,,
1198a,Mesnevi,,37.9007583,32.5260417,,
1198d,Mesnevi,,37.9007417,32.5263084,,
1199a,Aşkar Höyüğü Parkı,,37.8983667,32.5269916,,
1199d,Aşkar Höyüğü Parkı,,37.89835,32.5272333,,
119a,Merhale,,37.812773,32.436549,,
11a,Millet Bahçesi,,37.867033,32.4827,,
11d,Millet Bahçesi,,37.867175,32.48251,,
1200a,Karkent Bafra,,37.897075,32.52625,,
1201d,Üçdere,,37.89537,32.523409,,
1202d,Kazdağı,,37.893751,32.521258,,
1203a,İsmail Hakkı,,37.891003,32.517278,,
1204a,Aydınlar,,37.88475196,32.50808667,,
1205a,Akçil,,37.888717,32.514032,,
1206a,Kavakaltı Cami,,37.886522,32.511076,,
1207a,Bahtıgüzel,,37.88178759602254,32.503700349479914,,
1207d,Bahtıgüzel,,37.881734685432,32.50357696786523,,
1208a,Vahdet,,37.88366208350107,32.50299761071801,,
1208d,Vahdet,,37.88362745499796,32.502917647361755,,
1209d,Ereğli Yolu,,37.837948,32.783907,,
120a,Ermişli,,37.859488,32.466478,,
120d,Ermişli,,37.859365,32.46628,,
1210a,Hacı Hasanbaşı 2,,37.8800814999589,32.50336239114404,,
1210d,Hacı Hasanbaşı 2,,37.88011349091098,32.50328192487359,,
1211a,Araplar Cami,,37.8836667,32.5056917,,
1211d,Araplar Cami,,37.8837417,32.505675,,
1212a,Kürden,,37.8860834,32.5072,,
1213a,Araplar Ak Cami,,37.8897917,32.5073083,,
1214a,Hacıbacak Cami,,37.8913584,32.5073167,,
1215a,Cengiz Topel İlkokulu,,37.8936167,32.50745,,
1216a,Seyit Kutup,,37.907946,32.526151,,
1216d,Seyit Kutup,,37.907999,32.525968,,
1217a,Babı Ali,,37.906375,32.5293083,,
1217d,Babı Ali,,37.9066,32.52964,,
1218a,Mevlana Ptt,,37.903675,32.5324417,,
1218d,Mevlana Ptt,,37.90379,32.53273,,
1219a,Bestami,,37.902375,32.5362583,,
121a,İstikrar,,37.815146,32.438635,,
1220a,Ragıp,,37.90465,32.5385833,,
1221a,Ravza,,37.906679,32.539523,,
1222a,Ehlibeyt,,37.90745,32.5345333,,
1223a,Neü Mühendislik Fak.,,37.86347,32.412108,,
1223d,Neü Mühendislik Fak.,,37.863417,32.412045,,
1224a,Neü Mühendislik Fak. 2,,37.86635,32.411292,,
1224d,Neü Mühendislik Fak. 2,,37.86642,32.411233,,
1225a,Hurdacılar Sanayi,,37.9129417,32.532775,,
1225d,Hurdacılar Sanayi,,37.9130917,32.5326584,,
1226d,İkbal Cami,,37.9109083,32.5301417,,
1227a,10579. Sk,,37.9162434,32.535675,,
1227d,10579. Sk,,37.9162634,32.535575,,
1228a,Büsan Girişi,,37.9170917,32.5373417,,
1229a,10643. Sk,,37.915034,32.541228,,
122a,Şahap,,37.817151,32.441833,,
1230a,10647. Sk,,37.9124917,32.5457583,,
1231a,10652. Sk,,37.911425,32.5502083,,
1231d,10652. Sk,,37.911425,32.5498083,,
1232a,10648. Sk,,37.9136834,32.547925,,
1232d,10648. Sk,,37.9136834,32.547725,,
1233a,Büsan Cami,,37.915375,32.5447833,,
1234a,Kosgeb,,37.917075,32.5417333,,
1235a,10642. Sk,,37.919075,32.5380417,,
1236a,Medcezir,,37.921275,32.533975,,
1237a,Şatır Yolu 1,,37.79395,32.7746416,,
1238a,Yazıcıoğlu,,37.8761083,32.531675,,
1238d,Yazıcıoğlu,,37.8762583,32.5316457,,
1239d,Vuslat,,37.92745,32.5326833,,
123a,Zümrüt Cami,,37.8519917,32.448075,,
123d,Zümrüt Cami,,37.852075,32.4481083,,
1240d,10683. Sk,,37.9266333,32.5339,,
1241d,10687. Sk,,37.9275166,32.5345917,,
1242a,Kışlaönü 1,,37.868033,32.513501,,
1242d,Kışlaönü 1,,37.868086,32.513297,,
1244a,Dikilitaş,,37.95484,32.47237,,
1244d,Dikilitaş,,37.95459,32.47237,,
1245a,Baykara,,37.95285,32.4745,,
1245d,Baykara,,37.95265,32.4747167,,
1246a,Karatay Hükümet Konağı,,37.863891,32.543327,,
1246d,Karatay Hükümet Konağı,,37.863834,32.543129,,
1247a,Tatköy Baraj Ayrımı,,37.937523,32.396734,,
1247d,Tatköy Baraj Ayrımı,,37.937589,32.396755,,
1248a,Medicana Hastanesi,,37.8935083,32.49809,,
1249d,Zencirli 3,,38.00377,32.835478,,
124a,Yeşildal,,37.848214,32.446109,,
124d,Yeşildal,,37.848231,32.446021,,
1250d,Zencirli 5,,38.008335,32.834667,,
1251a,Konlas,,38.027335,32.645659,,
1251d,Konlas,,38.027375,32.645772,,
1252a,3. Sk,,37.96408,32.61929,,
1253a,Evrenköy 2,,37.96733,32.61393,,
1253d,Evrenköy 2,,37.967302,32.613812,,
1254a,Arıkan,,37.849659,32.51017,,
1254d,Arıkan,,37.849775,32.50991,,
1255a,Boztepe,,37.851625,32.51281,,
1255d,Boztepe,,37.8516084,32.51242,,
1256a,Mahiler,,37.8543583,32.51673,,
1256d,Mahiler,,37.854425,32.51638,,
1257a,Demircan,,37.8565417,32.52026,,
1257d,Demircan,,37.8566083,32.51986,,
1258a,Asmalı Konak,,37.859418,32.523774,,
1258d,Asmalı Konak,,37.859649,32.523586,,
1259a,Kurudere,,37.864555,32.524883,,
1259d,Kurudere,,37.864602,32.525195,,
125a,Gürnihal,,37.8456917,32.4443917,,
1261a,Astar,,37.86861,32.525024,,
1261d,Astar,,37.868531,32.525292,,
1262a,Azimet,,37.87175,32.52741,,
1262d,Azimet,,37.871925,32.52716,,
1263a,Karfet Fetih Cami,,37.8764,32.5277,,
1263d,Karfet Fetih Cami,,37.8763,32.5274,,
1264a,Karatay Kent,,37.881468,32.527121,,
1264d,Karatay Kent,,37.881609,32.527427,,
1265a,Fındık,,37.8839833,32.5273,,
1265d,Fındık,,37.8838917,32.52694,,
1266a,Şalvarcı,,37.8877583,32.52397,,
1266d,Şalvarcı,,37.887525,32.52381,,
1267a,Oğuzhan,,37.8900083,32.52059,,
1267d,Oğuzhan,,37.889875,32.52032,,
1268a,Bayatlı,,37.8920584,32.51753,,
1268d,Bayatlı,,37.8919917,32.51714,,
1269a,Mercidabık,,37.893625,32.51515,,
1269d,Mercidabık,,37.8933917,32.51504,,
126a,Cemal Bardakçı İlkokulu,,37.847205,32.442719,,
126d,Cemal Bardakçı İlkokulu,,37.847381,32.442692,,
1270a,Ala,,37.8944833,32.51205,,
1270d,Ala,,37.89425,32.51215,,
1271a,Canöz,,37.89485,32.50805,,
1271d,Canöz,,37.8946667,32.50815,,
1272a,İsmet Paşa İlkokulu,,37.8761584,32.5001584,,
1273a,Nesrin Ayşegül İlkokulu,,37.881675,32.4956917,,
1273d,Nesrin Ayşegül İlkokulu,,37.8812166,32.4957334,,
1274a,Musalla Şehitlik,,37.8842883,32.4973017,,
1274d,Musalla Şehitlik,,37.8843083,32.49713,,
1275a,Emniyet Müdürlüğü,,37.88712,32.499468,,
1275d,Emniyet Müdürlüğü,,37.887109,32.499114,,
1276a,Toklu,,37.889375,32.501125,,
1276d,Toklu,,37.8895167,32.5009083,,
1277a,Kocaense,,37.8918833,32.502925,,
1277d,Kocaense,,37.8918417,32.502625,,
1278a,Hava Lojmanları,,37.8932583,32.5040083,,
1278d,Hava Lojmanları,,37.893225,32.5036584,,
1279a,Gündüz,,37.8977834,32.5073083,,
1279d,Gündüz,,37.897725,32.5069083,,
127a,Saka Cami,,37.8466917,32.439575,,
127d,Saka Cami,,37.846775,32.439525,,
1280a,Abdülbasri,,37.9008083,32.509525,,
1280d,Abdülbasri,,37.9010417,32.509325,,
1281a,Hekim Gaznevi,,37.9031583,32.511225,,
1281d,Hekim Gaznevi,,37.903275,32.510975,,
1282a,Karayolları Cami,,37.9066666,32.513825,,
1282d,Karayolları Cami,,37.9067917,32.5135583,,
1283a,Karayolları Lojmanları,,37.9099,32.5157166,,
1283d,Karayolları Lojmanları,,37.9098333,32.5153667,,
1284a,Laleciler,,37.916614,32.519809,,
1284d,Laleciler,,37.916694,32.519444,,
1285a,Altınkaya,,37.8832417,32.5372833,,
1285d,Altınkaya,,37.8833667,32.5371,,
1286a,Çevreli,,37.919502,32.522116,,
1286d,Çevreli,,37.919802,32.521848,,
1287a,Büsan,,37.923309,32.525978,,
1287d,Büsan,,37.923381,32.525431,,
1288a,Aykent,,37.929474,32.532019,,
1288d,Aykent,,37.928562,32.530468,,
1289a,Toprak Mahsulleri Ofisi,,37.931659,32.534154,,
1289d,Toprak Mahsulleri Ofisi,,37.931919,32.533816,,
128a,Tahir Büyükkörükcü İhl,,37.8446667,32.437275,,
128d,Tahir Büyükkörükcü İhl,,37.844725,32.4372083,,
1290a,Modesa,,37.9347916,32.5370583,,
1290d,Modesa,,37.9354917,32.5373083,,
1291a,Türk Yıldızları Parkı 1,,37.9521583,32.555425,,
1291d,Türk Yıldızları Parkı 1,,37.952575,32.5552916,,
1292a,Konsan,,37.943625,32.5462167,,
1292d,Konsan,,37.9438083,32.5459167,,
1293a,Türk Yıldızları Parkı 2,,37.9550417,32.558575,,
1293d,Türk Yıldızları Parkı 2,,37.9554417,32.5584917,,
1294a,Aksaray Yolu Köprüsü,,37.946825,32.5497417,,
1294d,Aksaray Yolu Köprüsü,,37.9466917,32.5489917,,
1295a,Aksaray Kavşağı,,37.94995,32.5567833,,
1295d,Aksaray Kavşağı,,37.950175,32.5567,,
1296a,Türk Yıldızları Parkı 3,,37.9579583,32.561725,,
1296d,Türk Yıldızları Parkı 3,,37.958325,32.5616083,,
1297a,Tüyap,,37.9505084,32.56065,,
1297d,Tüyap,,37.9507417,32.5603083,,
1298a,Aslım,,37.9528667,32.5753666,,
1298d,Aslım,,37.95325,32.5753,,
1299a,Tümosan,,37.9560833,32.5964167,,
1299d,Tümosan,,37.9564167,32.5965833,,
129a,Kazan Bendi Cami,,37.8434917,32.4348333,,
129d,Kazan Bendi Cami,,37.8435583,32.434875,,
12a,Muhacir Pazarı,,37.866475,32.4882333,,
12d,Muhacir Pazarı,,37.866575,32.4881333,,
1300a,Lila,,38.008532,32.493519,,
1300d,Lila,,38.008501,32.49361,,
1301a,421. Sk,,37.9584667,32.6119,,
1301d,421. Sk,,37.9586667,32.6117333,,
1302a,2. Organize Aksaray Girişi,,37.960771,32.617115,,
1302d,2. Organize Aksaray Girişi,,37.960752,32.617303,,
1303a,2. Organize 2,,37.968096,32.610585,,
1303d,2. Organize 2,,37.968292,32.610585,,
1304a,2. Organize 3,,37.967535,32.608357,,
1304d,2. Organize 3,,37.967435,32.608357,,
1305a,2. Organize 4,,37.9702,32.6080083,,
1305d,2. Organize 4,,37.9701667,32.6079083,,
1306a,Mft Sanayi,,37.852043,32.675657,,
1306d,Mft Sanayi,,37.852279,32.67563,,
1307a,2. Organize 6,,37.973969,32.605565,,
1307d,2. Organize 6,,37.973972,32.605651,,
1308a,2. Organize 7,,37.9782,32.6030333,,
1308d,2. Organize 7,,37.9781834,32.6029166,,
1309d,2. Organize 8,,37.980169,32.604487,,
130a,Sert,,37.843975,32.4328833,,
130d,Sert,,37.8440083,32.4328917,,
1310d,2. Organize 9,,37.981767,32.598441,,
1312a,9. Sk,,37.9895,32.6055417,,
1312d,9. Sk,,37.9893,32.6055917,,
1313a,Vali İhsan Dede,,37.9913583,32.6071916,,
1313d,Vali İhsan Dede,,37.9911083,32.6072417,,
1314a,Sanayi 13. Sk,,37.9904917,32.6098917,,
1314d,Sanayi 13. Sk,,37.990475,32.6097417,,
1315a,2. Organize Çıkışı,,37.987132,32.600405,,
1315d,2. Organize Çıkışı,,37.987276,32.600641,,
1316a,Organize 1,,37.9672833,32.6260583,,
1316d,Organize 1,,37.9672166,32.6259417,,
1317a,Sanayi 6. Sk,,37.970475,32.6244916,,
1317d,Sanayi 6. Sk,,37.9706583,32.624275,,
1318a,8. Sk,,37.9744417,32.625725,,
1318d,8. Sk,,37.97455,32.625575,,
1319a,Ziyaeddin,,37.9777583,32.6288917,,
1319d,Ziyaeddin,,37.9779583,32.6288583,,
131a,İlkokul,,37.8422083,32.430725,,
131d,İlkokul,,37.8423167,32.4306167,,
1320a,Çelimli,,37.9794417,32.6290834,,
1320d,Çelimli,,37.9795417,32.6287667,,
1321a,19. Sk,,37.981525,32.6254667,,
1321d,19. Sk,,37.9814917,32.6253417,,
1322a,13. Sk 2,,37.983525,32.6219417,,
1322d,13. Sk 2,,37.9835583,32.62175,,
1323a,13. Sk,,37.985475,32.6186,,
1323d,13. Sk,,37.9854917,32.6183917,,
1324a,3. Organize,,37.988075,32.614125,,
1324d,3. Organize,,37.988075,32.614075,,
1325a,Türk Yıldızları Parkı 4,,37.9611,32.5651,,
1325d,Türk Yıldızları Parkı 4,,37.9615417,32.565025,,
1326a,Kayacık Yağmur,,37.994997,32.5999,,
1326d,Kayacık Yağmur,,37.99513,32.5996,,
1327d,Demirel,,37.940913,32.423593,,
1328a,Türk Yıldızları Parkı 5,,37.967275,32.5716417,,
1328d,Türk Yıldızları Parkı 5,,37.9676417,32.5715834,,
1329a,Lalehan Cd,,37.96475,32.615375,,
1329d,Lalehan Cd,,37.964599,32.61549,,
132a,Durunday,,37.8401417,32.4315583,,
132d,Durunday,,37.8402167,32.4314917,,
1330a,Türk Yıldızları Parkı 6,,37.9705083,32.575125,,
1330d,Türk Yıldızları Parkı 6,,37.970875,32.5750583,,
1331a,Pınarbaşı Girişi,,38.021475,32.6278917,,
1331d,Pınarbaşı Girişi,,38.021475,32.6278667,,
1332a,16722. Sk,,38.0323583,32.6158333,,
1332d,16722. Sk,,38.0323083,32.6158166,,
1333a,Molla Gürani,,38.045725,32.603875,,
1333d,Molla Gürani,,38.0458583,32.6037417,,
1334a,16742. Sk,,38.0472917,32.6029083,,
1334d,16742. Sk,,38.0473583,32.602825,,
1335a,Hoca Nasreddin,,38.050525,32.6009583,,
1335d,Hoca Nasreddin,,38.050625,32.6008417,,
1336a,16825. Sk,,38.0540917,32.5988084,,
1336d,16825. Sk,,38.0541583,32.598675,,
1337a,16827. Sk,,38.056325,32.597425,,
1337d,16827. Sk,,38.056425,32.597325,,
1338a,16829. Sk,,38.0574583,32.5951583,,
1338d,16829. Sk,,38.0574417,32.5950667,,
1339a,Pınarbaşı Cami,,38.0592334,32.5941,,
1339d,Pınarbaşı Cami,,38.05935,32.5940166,,
133a,Balova,,37.8374,32.43145,,
133d,Balova,,37.8375333,32.4314417,,
1340a,Pınarbaşı Son,,38.0633833,32.59475,,
1340d,Pınarbaşı Son,,38.06345,32.5947167,,
1341a,Sultan Mehmet,,38.0681,32.5959833,,
1341d,Sultan Mehmet,,38.0681334,32.5959667,,
1342a,Sarıcalar Mahalle Girişi,,38.0858083,32.6082417,,
1342d,Sarıcalar Mahalle Girişi,,38.085825,32.608225,,
1343a,18351. Sk,,38.0871917,32.6102917,,
1343d,18351. Sk,,38.0872667,32.6102667,,
1344a,25756. Sk,,38.1033417,32.555375,,
1344d,25756. Sk,,38.1033083,32.5553833,,
1345a,Çaltı,,38.10275,32.5526833,,
1345d,Çaltı,,38.1026083,32.55225,,
1346a,Solak,,38.0409667,32.6055,,
1346d,Solak,,38.0409167,32.6055417,,
1347a,16706. Sk,,38.0378583,32.603625,,
1347d,16706. Sk,,38.0378417,32.6036583,,
1348a,Safa Cami,,38.036475,32.600275,,
1348d,Safa Cami,,38.036375,32.6002417,,
134a,Pir Aliler,,37.8354,32.4313333,,
134d,Pir Aliler,,37.8354333,32.4313833,,
1350a,Bilim Merkezi,,37.986875,32.5919,,
1350d,Bilim Merkezi,,37.9866083,32.5909917,,
1351a,Birlik Parkı,,37.9769917,32.5821083,,
1351d,Birlik Parkı,,37.9773583,32.5820417,,
1352a,Eski Ankara Cd,,37.9789417,32.5840667,,
1352d,Eski Ankara Cd,,37.9793083,32.584025,,
1353a,Hava Alanı,,37.9831417,32.5881583,,
1353d,Hava Alanı,,37.9833583,32.587975,,
1354a,Türk Yıldızları Parkı 7,,37.9737083,32.5786417,,
1354d,Türk Yıldızları Parkı 7,,37.973925,32.5783583,,
1356a,Çaltı Hz Osman Cami,,38.1,32.5467834,,
1356d,Çaltı Hz Osman Cami,,38.0999417,32.546825,,
1358a,Yaylapınar,,37.822045,32.499526,,
1358d,Yaylapınar,,37.821984,32.49951,,
1359a,Dolum Tesisi,,38.0221417,32.6534583,,
1359d,Dolum Tesisi,,38.0220917,32.6536334,,
135a,Üçyol Cami,,37.8343084,32.4278083,,
135d,Üçyol Cami,,37.834275,32.4278583,,
1360a,16905. Sk,,38.0239917,32.67455,,
1360d,16905. Sk,,38.0240166,32.6746,,
1361a,Tömek Cami,,38.0240334,32.6794,,
1362a,16913. Sk,,38.0248584,32.6794333,,
1363a,Ortakonak 1,,37.9675667,32.6955583,,
1363d,Ortakonak 1,,37.9675917,32.695525,,
1364a,Ortakonak 3,,37.9646417,32.6965917,,
1364d,Ortakonak 3,,37.9646667,32.6966,,
1365a,Ortakonak 2,,37.967275,32.689775,,
1365d,Ortakonak 2,,37.9674917,32.6896083,,
1366a,Çengilti Cami,,38.0046583,32.7722333,,
1366d,Çengilti Cami,,38.004625,32.7721917,,
1367a,Çengilti İlkokulu,,38.0069,32.7719666,,
1367d,Çengilti İlkokulu,,38.0069667,32.7719083,,
1368a,Çengilti 1,,38.0051583,32.7741583,,
1368d,Çengilti 1,,38.0052167,32.7741834,,
1369a,Koca Yusuf 1,,38.0225833,32.6635,,
1369d,Koca Yusuf 1,,38.0227,32.66385,,
136a,Deveci,,37.8365666,32.4259,,
136d,Deveci,,37.8365083,32.4259583,,
1370a,Acıdort Köyü,,37.9698166,32.8005667,,
1371a,Acıdort Girişi,,37.970607,32.796828,,
1371d,Acıdort Girişi,,37.970643,32.796925,,
1372a,Zencirli 2,,38.004175,32.8317417,,
1373a,Zencirli Cami,,38.0034084,32.83405,,
1374a,Zencirli 4,,38.0032,32.8388,,
1374d,Zencirli 4,,38.003275,32.8386417,,
1375a,Divanlar Köyü Yol İçi,,37.9811583,32.9033417,,
1375d,Divanlar Köyü Yol İçi,,37.98125,32.9034,,
1376a,Divanlar Cami,,37.9813667,32.90685,,
1377a,Divanlar İlkokulu,,37.98025,32.9046167,,
1378a,Abdülaziz,,37.981755,32.489109,,
1378d,Abdülaziz,,37.982121,32.489209,,
1379a,Dr. Ali Eğribaş,,37.8949583,32.50162,,
1379d,Dr. Ali Eğribaş,,37.894925,32.50215,,
137a,Fenersiz,,37.84855,32.4492833,,
137d,Fenersiz,,37.8485667,32.44935,,
1380a,Şeyh Edebalı,,37.666329,32.588778,,
1380d,Şeyh Edebalı,,37.665997,32.588995,,
1381a,Tokat,,37.812473,32.495243,,
1381d,Tokat,,37.812447,32.49538,,
1382a,Yürekli,,37.9043666,32.5026666,,
1383a,Gölbaşı 1,,37.9069,32.5032833,,
1384d,Sarıer,,37.906554,32.487226,,
1385d,Temsili,,37.908719,32.485659,,
1386a,5. Murad,,37.984872,32.486653,,
1386d,5. Murad,,37.984985,32.486889,,
1387d,Tahran,,37.910615,32.487387,,
1388a,Ardıçlı Toki 1,,38.001194,32.492706,,
1388d,Ardıçlı Toki 1,,38.00126,32.492725,,
1389a,Ardıçlı Toki 2,,38.00166,32.490468,,
1389d,Ardıçlı Toki 2,,38.001816,32.490668,,
138a,Dutluca,,37.8486917,32.4520583,,
138d,Dutluca,,37.8486833,32.4521667,,
1391a,Ardıçlı Toki 3,,38.003751,32.487703,,
1391d,Ardıçlı Toki 3,,38.003677,32.487607,,
1392a,Yahya,,37.9103333,32.50425,,
1393a,Ardıçlı Toki Giriş,,37.998268,32.491412,,
1393d,Ardıçlı Toki Giriş,,37.998125,32.491431,,
1394a,Taşer,,37.9700666,32.53435,,
1395a,Eğrilmez,,37.9745,32.5219417,,
1395d,Eğrilmez,,37.974453,32.521741,,
1396a,Çırağan,,37.8886,32.489975,,
1396d,Çırağan,,37.8889255,32.4903583,,
1397a,Yanal,,37.8921583,32.4927917,,
1397d,Yanal,,37.8921583,32.4930417,,
1398d,Konya Cezaevi,,37.867265,32.546454,,
1399a,Selçuklu Yht Garı,,37.8969,32.499387,,
1399d,Selçuklu Yht Garı,,37.896737,32.499516,,
139a,Akçalılar,,37.8482083,32.4549083,,
139d,Akçalılar,,37.848225,32.45495,,
13a,Bodur,,37.86587,32.491722,,
13d,Bodur,,37.866054,32.491807,,
1400a,Manifaturacılar,,37.899175,32.5029833,,
1400d,Manifaturacılar,,37.899275,32.502775,,
1401a,Adapte,,37.9065083,32.4946417,,
1401d,Adapte,,37.9064083,32.494775,,
1402a,Radar,,37.908275,32.4948333,,
1402d,Radar,,37.908375,32.494875,,
1403a,Mimar Sinan Cami,,37.9095416,32.4927583,,
1403d,Mimar Sinan Cami,,37.9095667,32.49285,,
1404a,Mehmet Zahid Kotku İhl,,37.912075,32.494375,,
1404d,Mehmet Zahid Kotku İhl,,37.9121416,32.494475,,
1405a,Anı,,37.9142584,32.4952834,,
1405d,Anı,,37.9144583,32.49525,,
1406a,Tarakçı,,37.9174167,32.4926366,,
1406d,Tarakçı,,37.9174167,32.4925166,,
1407a,Kabiliyet,,37.9200333,32.4926483,,
1407d,Kabiliyet,,37.9200333,32.4925083,,
1408a,Masumhane,,37.9218,32.4939666,,
1408d,Masumhane,,37.92185,32.4939666,,
1409a,Sakarya,,37.92178,32.4969334,,
1409d,Sakarya,,37.92185,32.4969334,,
140a,Dündarlı,,37.851375,32.458925,,
1410a,Söğütdibi,,37.9230267,32.501599,,
1410d,Söğütdibi,,37.9230367,32.50156,,
1411a,Özsahra,,37.9245667,32.5020583,,
1411d,Özsahra,,37.9246167,32.5021417,,
1412a,Besim,,37.92645,32.5002333,,
1412d,Besim,,37.9268,32.5003667,,
1413a,Malazgirt Cami,,37.928395,32.4991216,,
1413d,Malazgirt Cami,,37.928425,32.4991916,,
1414a,Mehtap,,37.9301917,32.4966417,,
1414d,Mehtap,,37.9302417,32.4967083,,
1415a,Ceylangözü,,37.9313667,32.49295,,
1415d,Ceylangözü,,37.931325,32.49315,,
1416a,Hicret Cami,,37.9326,32.49525,,
1416d,Hicret Cami,,37.9325,32.49525,,
1417a,Mehmet Akif Lisesi,,37.9326,32.4972666,,
1417d,Mehmet Akif Lisesi,,37.932525,32.4973583,,
1418a,Cazibe,,37.9339167,32.4996333,,
1418d,Cazibe,,37.93385,32.4997834,,
1419a,Otogar,,37.94855,32.51075,,
1419d,Otogar,,37.948768,32.510723,,
141a,Dayılı,,37.852325,32.456075,,
141d,Dayılı,,37.8523084,32.456125,,
1420a,Yaşayan,,37.9477084,32.4856917,,
1420d,Yaşayan,,37.9474917,32.4856833,,
1421a,Kaletaş,,37.9477417,32.4823416,,
1421d,Kaletaş,,37.947675,32.4821083,,
1422a,Huzur Bahçesi 1,,37.9507417,32.4782417,,
1422d,Huzur Bahçesi 1,,37.9509,32.4779667,,
1423a,Huzur Bahçesi 2,,37.953676,32.478085,,
1423d,Huzur Bahçesi 2,,37.953585,32.477881,,
1424a,Aruz,,37.94235,32.49895,,
1424d,Aruz,,37.9423334,32.49905,,
1425d,Ayanoğlu,,37.937025,32.5044917,,
1426d,Eyüp Sultan Cami,,37.9370083,32.508125,,
1427a,Fulda,,37.9510666,32.5231167,,
1427d,Fulda,,37.951012,32.522903,,
1428a,Bizim,,37.94575,32.4989667,,
1428d,Bizim,,37.9457,32.4991417,,
1429a,Türkü,,37.944145,32.4999017,,
1429d,Türkü,,37.9440783,32.499875,,
142a,Müdafa,,37.8539166,32.4533667,,
142d,Müdafa,,37.8539834,32.45335,,
1430a,Dikmetaş,,37.9428,32.5034834,,
1430d,Dikmetaş,,37.9428,32.5034,,
1431a,Cumhuriyet Lisesi,,37.9401333,32.5028,,
1431d,Cumhuriyet Lisesi,,37.940134,32.5027008,,
1432a,Binkonut Pazar,,37.937824,32.503523,,
1432d,Binkonut Pazar,,37.937805,32.503448,,
1433a,Diyanet Yurdu,,37.9143833,32.49166,,
1433d,Diyanet Yurdu,,37.9143417,32.49171,,
1434a,Sultaniye,,37.9147167,32.4882667,,
1434d,Sultaniye,,37.9147583,32.4882583,,
1435a,Gültepe,,37.9156,32.4856167,,
1435d,Gültepe,,37.9156917,32.4855917,,
1436a,Tercüman,,37.917375,32.48703,,
1436d,Tercüman,,37.9174583,32.4868,,
1437a,Mesnet,,37.9194167,32.4883334,,
1437d,Mesnet,,37.9193167,32.488325,,
1438a,Çam Sakızı,,37.919725,32.4853,,
1438d,Çam Sakızı,,37.9197583,32.485125,,
1439a,Gülfidan,,37.9181916,32.4821917,,
1439d,Gülfidan,,37.918275,32.4821417,,
143a,Bulvar,,37.8411583,32.4529084,,
143d,Bulvar,,37.8413417,32.452975,,
1440a,Seçkinsaray,,37.9166417,32.4791583,,
1440d,Seçkinsaray,,37.9166917,32.4790083,,
1441a,Bağcı,,37.9183583,32.4779,,
1441d,Bağcı,,37.9182667,32.4780083,,
1442a,Gözcüler,,37.921475,32.4769083,,
1442d,Gözcüler,,37.9216,32.47695,,
1443a,Şeyhi,,37.924382,32.475784,,
1443d,Şeyhi,,37.924422,32.47586,,
1444a,İsmail Kaya,,37.9269583,32.4746917,,
1444d,İsmail Kaya,,37.926825,32.4748583,,
1445a,Burma,,37.931286,32.472394,,
1445d,Burma,,37.931307,32.472512,,
1446a,Gülyağı,,37.9337417,32.4707417,,
1446d,Gülyağı,,37.9337583,32.470825,,
1447a,Damarlar,,37.9369917,32.4686083,,
1447d,Damarlar,,37.936975,32.468725,,
1448a,Şirvan,,37.939825,32.4667583,,
1448d,Şirvan,,37.9398917,32.4668417,,
1449a,Ortakaya,,37.9426417,32.464875,,
1449d,Ortakaya,,37.9427583,32.4649083,,
144a,Kıvanç,,37.839875,32.4501167,,
144d,Kıvanç,,37.8399583,32.450075,,
1450a,Nurcan,,37.9456083,32.4627917,,
1450d,Nurcan,,37.9457417,32.4628417,,
1451a,Kelebekler Vadisi,,37.948636,32.461085,,
1451d,Kelebekler Vadisi,,37.94861,32.461209,,
1452a,Arıbalı,,37.9502333,32.4586083,,
1452d,Arıbalı,,37.9503167,32.4586334,,
1453a,İltifat,,37.9504,32.4556333,,
1453d,İltifat,,37.9504833,32.4555,,
1454a,Kto Mesleki Eğitim Merkezi,,37.945233,32.556284,,
1454d,Kto Mesleki Eğitim Merkezi,,37.945195,32.556216,,
1455a,Yıldırım,,37.9547167,32.453925,,
1455d,Yıldırım,,37.955058,32.454005,,
1456a,Veysel,,37.954175,32.45835,,
1456d,Veysel,,37.954025,32.458175,,
1457a,Bağlarbaşı Cami,,37.9551166,32.4607766,,
1457d,Bağlarbaşı Cami,,37.955072,32.460919,,
1458a,Arpaderesi,,37.887648,32.536064,,
1458d,Arpaderesi,,37.887686,32.535742,,
1459a,Baharistan,,37.957054,32.462544,,
1459d,Baharistan,,37.956976,32.462663,,
145a,Kavas,,37.8382584,32.4472583,,
145d,Kavas,,37.8382917,32.4471,,
1460a,Gülistan,,37.956899,32.465466,,
1460d,Gülistan,,37.956847,32.465483,,
1461a,Beylerbeyi,,37.957817,32.469508,,
1461d,Beylerbeyi,,37.957409,32.469325,,
1462a,Gülümser,,37.956046,32.474513,,
1462d,Gülümser,,37.956107,32.47477,,
1463a,Yıldızlı,,37.95162,32.47212,,
1463d,Yıldızlı,,37.95155,32.47213,,
1464a,Barana,,37.959,32.4734667,,
1464d,Barana,,37.9588333,32.47315,,
1465a,Ahmet Yesevi,,37.958975,32.4764916,,
1465d,Ahmet Yesevi,,37.9588167,32.4763167,,
1466a,Lokman Hekim Lisesi,,37.9589667,32.479375,,
1466d,Lokman Hekim Lisesi,,37.9588167,32.4793,,
1467a,Veysel Karani,,37.961037,32.519617,,
1467d,Veysel Karani,,37.960709,32.519308,,
1468a,Gülçayı,,37.96445,32.5196334,,
1468d,Gülçayı,,37.964488,32.519455,,
1469a,Ayazağa,,37.967154,32.521509,,
1469d,Ayazağa,,37.967284,32.521234,,
146a,Kumocağı,,37.8377333,32.4429666,,
146d,Kumocağı,,37.8378167,32.4430333,,
1470a,Özçiçek,,37.9720167,32.5224,,
1470d,Özçiçek,,37.971946,32.522197,,
1471a,Taraftar,,37.948111,32.490649,,
1471d,Taraftar,,37.9478631,32.490622,,
1472a,Ünal,,37.944833,32.492988,,
1472d,Ünal,,37.9447334,32.493175,,
1473a,Akkonak,,37.952525,32.492075,,
1473d,Akkonak,,37.952525,32.492575,,
1474a,Ayşe Kemal İnanç İhl,,37.9545334,32.5229166,,
1474d,Ayşe Kemal İnanç İhl,,37.954468,32.522699,,
1475a,Konya Diş Hastanesi,,37.9496417,32.493,,
1475d,Konya Diş Hastanesi,,37.9496417,32.4932,,
1476a,Dr. Halil Ürün,,37.948675,32.4964084,,
1476d,Dr. Halil Ürün,,37.9480666,32.4960083,,
1477a,Selçuklu Belediyesi,,37.9487833,32.5007667,,
1477d,Selçuklu Belediyesi,,37.9481,32.5007334,,
1478a,Beyaz Karanfil,,37.9486334,32.5053667,,
1478d,Beyaz Karanfil,,37.94825,32.5052333,,
1479a,Özdeyiş,,37.861411,32.528625,,
147a,Özal,,37.8376333,32.4401666,,
147d,Özal,,37.8377,32.4402167,,
1480a,Oğuz Kağan İlkokulu,,37.911325,32.478075,,
1480d,Oğuz Kağan İlkokulu,,37.911166,32.47818,,
1481a,Kader,,37.9223,32.4849667,,
1481d,Kader,,37.9223334,32.48505,,
1482a,Buhara Nur Cami,,37.9249833,32.4848833,,
1482d,Buhara Nur Cami,,37.925,32.4851834,,
1483a,Tekgül,,37.9286917,32.487225,,
1483d,Tekgül,,37.9285417,32.487225,,
1484a,Ataseven,,37.9057417,32.4912833,,
1484d,Ataseven,,37.9055666,32.4911,,
1485a,Özışık,,37.935832,32.482976,,
1485d,Özışık,,37.935883,32.482997,,
1486a,Yahyakent,,37.938771,32.4818,,
1486d,Yahyakent,,37.938771,32.481854,,
1487d,Erpolat,,37.940439,32.484039,,
1488d,İntizam,,37.9403166,32.4870416,,
1489a,Ovadüzü,,37.939871,32.489554,,
1489d,Ovadüzü,,37.939865,32.489667,,
148a,Lalebahçe İlkokulu,,37.8361416,32.436925,,
148d,Lalebahçe İlkokulu,,37.836375,32.4371083,,
1490a,Yerlikaya,,37.9378834,32.4883833,,
1490d,Yerlikaya,,37.9378416,32.4882583,,
1491a,Özduman,,37.9359583,32.4895916,,
1491d,Özduman,,37.9358333,32.4895417,,
1492a,Kaşgarlı Mahmut,,37.937,32.4943,,
1492d,Kaşgarlı Mahmut,,37.9372666,32.4943667,,
1493a,Yener,,37.9416083,32.504875,,
1493d,Yener,,37.9416833,32.5050417,,
1494a,Revan,,37.9416167,32.5082,,
1494d,Revan,,37.9416917,32.5084083,,
1495a,Ulunay,,37.9432,32.5094667,,
1495d,Ulunay,,37.9431917,32.5092917,,
1496a,Dolunay,,37.947481,32.509504,,
1496d,Dolunay,,37.9474,32.509358,,
1497a,Zeki Altındağ Cami,,37.9521,32.4984916,,
1497d,Zeki Altındağ Cami,,37.9519917,32.4983167,,
1498a,Adliye Lojmanları,,37.9521,32.4947583,,
1498d,Adliye Lojmanları,,37.9520166,32.4946583,,
1499a,Şensözlü,,37.954025,32.4897583,,
1499d,Şensözlü,,37.9540084,32.4893,,
149a,Çalıklı Cami,,37.834975,32.4341583,,
149d,Çalıklı Cami,,37.8351417,32.4344584,,
1500a,Ahmetler,,37.9904167,32.5124583,,
1500d,Ahmetler,,37.9904833,32.5119666,,
1501a,Parsana Yayla Cami,,37.956463,32.485761,,
1501d,Parsana Yayla Cami,,37.956383,32.48548,,
1502a,Karadiğin Deresi 2,,37.748447,32.363482,,
1502d,Karadiğin Deresi 2,,37.748525,32.363427,,
1503a,Göztepe Konutları Giriş,,37.934195,32.431404,,
1503d,Göztepe Konutları Giriş,,37.934074,32.431522,,
1504a,Sonuç,,37.9673,32.4807084,,
1504d,Sonuç,,37.9674583,32.4808583,,
1505a,Yavuzsoy,,37.9659583,32.4849333,,
1505d,Yavuzsoy,,37.9660583,32.4852417,,
1506a,Şehit Ercan Çelik,,37.963125,32.4921083,,
1506d,Şehit Ercan Çelik,,37.963275,32.4922334,,
1507a,Çanakkale,,37.961875,32.495175,,
1507d,Çanakkale,,37.9619917,32.4954667,,
1508a,Elmalılı Hamdi Hoca,,37.9607917,32.4979417,,
1508d,Elmalılı Hamdi Hoca,,37.9608583,32.498375,,
1509a,Semih,,37.9604,32.5030167,,
1509d,Semih,,37.9605834,32.5030167,,
150a,Petekalan,,37.834125,32.4318583,,
150d,Petekalan,,37.8341583,32.4318833,,
1510a,Erenler,,37.9865084,32.5124167,,
1510d,Erenler,,37.9866167,32.5119833,,
1511a,Otogar Cami,,37.950025,32.5071584,,
1511d,Otogar Cami,,37.9500834,32.5070667,,
1512a,Körükçü,,37.9614917,32.5059,,
1512d,Körükçü,,37.9616667,32.5056334,,
1513a,Güllünar,,37.9647417,32.5074834,,
1513d,Güllünar,,37.9648583,32.5073417,,
1514a,Canfeda,,37.9673,32.509475,,
1514d,Canfeda,,37.9673084,32.50925,,
1515a,Ulusal,,37.97695,32.51575,,
1515d,Ulusal,,37.9770917,32.5156917,,
1516a,Ayçeken,,37.9781666,32.5085166,,
1516d,Ayçeken,,37.9780833,32.5085584,,
1517a,Şener,,37.982825,32.5123583,,
1517d,Şener,,37.9828333,32.5121,,
1518a,Yazır Toki İlkokulu,,37.983664,32.489819,,
1518d,Yazır Toki İlkokulu,,37.9837135,32.489629,,
1519a,Mücadele,,37.985934,32.493046,,
1519d,Mücadele,,37.985987,32.492885,,
151a,Pirhasan Mezarlığı,,37.83295,32.4288833,,
151d,Pirhasan Mezarlığı,,37.8329517,32.429005,,
1520a,Şehit Mustafa Akyüz,,37.9886084,32.4913334,,
1520d,Şehit Mustafa Akyüz,,37.988525,32.49115,,
1521d,Teaş Trafo,,37.84373,32.74926,,
1522a,Köyceğez Kyk Erkek Yurdu,,37.874872,32.409775,,
1523a,Köyceğiz Turnike,,37.866344,32.422687,,
1523d,Köyceğiz Turnike,,37.866546,32.422591,,
1524a,Köyceğiz Kampüs 2,,37.866252,32.421002,,
1524d,Köyceğiz Kampüs 2,,37.866113,32.420856,,
1526a,Kandil,,37.9363166,32.5112166,,
1526d,Kandil,,37.9363166,32.5108833,,
1527a,Ferhatlı,,37.933025,32.5106416,,
1527d,Ferhatlı,,37.93295,32.510275,,
1528a,Teknik Lise,,37.9250667,32.5084667,,
1528d,Teknik Lise,,37.9254416,32.508225,,
1529a,1. Organize,,37.9223,32.50848,,
1529d,1. Organize,,37.92256,32.50805,,
152a,Ahenkli,,37.8307917,32.426475,,
152d,Ahenkli,,37.8309083,32.4264417,,
1530a,Mobilyacılar Kavşağı,,37.9165083,32.507375,,
1530d,Mobilyacılar Kavşağı,,37.9157583,32.5060083,,
1531a,Koza,,37.911825,32.5015917,,
1531d,Koza,,37.9117917,32.5010583,,
1532a,Oğuzeli,,37.907401,32.496544,,
1532d,Oğuzeli,,37.90738,32.4962,,
1533a,Köyceğiz Kyk Kız Yurdu,,37.867556,32.403271,,
1534a,Maun,,37.908587,32.495551,,
1534d,Maun,,37.908551,32.495642,,
1535a,Naima,,37.910916,32.497381,,
1535d,Naima,,37.9108417,32.497375,,
1536a,Vezirhan,,37.9131666,32.4984333,,
1536d,Vezirhan,,37.9132,32.4985167,,
1537a,Küçük,,37.915525,32.498425,,
1537d,Küçük,,37.9153333,32.4985,,
1538a,Kaleköy,,37.9170513,32.4991836,,
1538d,Kaleköy,,37.917,32.4992667,,
1539a,Fethiye Onsun İlkokulu,,37.92025,32.498453,,
1539d,Fethiye Onsun İlkokulu,,37.92004,32.498588,,
153a,Kaynaklar,,37.8289417,32.4233417,,
153d,Kaynaklar,,37.8290583,32.4233167,,
1540a,Lale,,37.9291,32.502575,,
1540d,Lale,,37.928875,32.5026916,,
1541a,Burçin,,37.9339833,32.5026666,,
1541d,Burçin,,37.934,32.5028,,
1542a,Hakim Konakları,,37.982384,32.497923,,
1542d,Hakim Konakları,,37.982403,32.498148,,
1543a,Pınarbaşı Köprü,,38.043119,32.605956,,
1544a,Fidancı,,37.866596,32.45925,,
1544d,Fidancı,,37.866725,32.45939,,
1545a,Salef,,37.892794,32.530903,,
1545d,Salef,,37.892682,32.530721,,
1546a,Dağsaray,,37.897225,32.4915333,,
1547a,Otogar Kavşağı,,37.94946,32.512318,,
1548a,Hızır,,38.005856,32.53486,,
1548d,Hızır,,38.005897,32.534896,,
1549a,Sivaslı Ali Kemal,,37.8762167,32.458675,,
1549d,Sivaslı Ali Kemal,,37.8762417,32.4588917,,
154a,Hacıgiden,,37.8312166,32.42305,,
154d,Hacıgiden,,37.8311833,32.42315,,
1550a,Mübeccel,,37.8724084,32.4579417,,
1550d,Mübeccel,,37.8724,32.4582167,,
1551a,Melikşah Parkı,,37.8696667,32.458125,,
1551d,Melikşah Parkı,,37.869725,32.4583583,,
1552a,Selçuklu Belediyesi Ortaokulu,,37.9860417,32.4951417,,
1552d,Selçuklu Belediyesi Ortaokulu,,37.9860833,32.495225,,
1553a,Cumhuriyet Polis Merkezi,,37.9427,32.5121,,
1553d,Cumhuriyet Polis Merkezi,,37.9427,32.51185,,
1554a,Sukunet,,37.9671183,32.5288416,,
1554d,Sukunet,,37.9670166,32.5288333,,
1556a,Büşra,,37.9692,32.51572,,
1556d,Büşra,,37.96915,32.51535,,
1557a,Soytürk,,37.9694033,32.5303334,,
1557d,Soytürk,,37.9694,32.5304333,,
1558a,Ardıçlı 16601,,38.01745,32.4333,,
1558d,Ardıçlı 16601,,38.0174167,32.43327,,
1559a,Arapağıl Mevki,,38.02115,32.38385,,
1559d,Arapağıl Mevki,,38.0210833,32.38383,,
155a,Anasultan Cami,,37.8336167,32.42255,,
155d,Anasultan Cami,,37.8336417,32.4226083,,
1560a,Akasya,,38.021575,32.37856,,
1560d,Akasya,,38.0215584,32.3785,,
1561a,Yeni Belediye Cd,,38.0629,32.3312,,
1561d,Yeni Belediye Cd,,38.0629584,32.33118,,
1562a,Tekin,,38.0654417,32.32986,,
1562d,Tekin,,38.0655,32.32968,,
1563a,Sıdkı,,37.9512583,32.5181334,,
1563d,Sıdkı,,37.9512583,32.5180934,,
1564a,Turgay,,37.9544583,32.5177333,,
1564d,Turgay,,37.9544283,32.5176833,,
1565a,Abidin Saniye Erçal Ortaokulu,,37.956923,32.517287,,
1565d,Abidin Saniye Erçal Ortaokulu,,37.95688,32.517093,,
1566a,Dönerli,,37.960475,32.5222583,,
1566d,Dönerli,,37.960475,32.5222083,,
1567a,Mta Girişi,,37.9617167,32.52275,,
1567d,Mta Girişi,,37.9617667,32.52275,,
1568a,Gökçeli,,37.9620334,32.52695,,
1568d,Gökçeli,,37.9620167,32.52705,,
1569a,Veli Köy,,37.965075,32.5268417,,
1569d,Veli Köy,,37.965075,32.526925,,
156a,Türkaslan,,37.8333417,32.417925,,
156d,Türkaslan,,37.8333667,32.4179666,,
1570a,Özbek,,37.969862,32.527651,,
1570d,Özbek,,37.969891,32.527644,,
1571a,Salihdede,,37.972517,32.528446,,
1571d,Salihdede,,37.972507,32.528543,,
1572a,Yücetürk,,37.9742417,32.5281417,,
1572d,Yücetürk,,37.9742917,32.5282583,,
1573a,Rağbet,,37.9763417,32.5249334,,
1573d,Rağbet,,37.9764166,32.5249917,,
1574a,Keşmir,,37.97625,32.5227667,,
1574d,Keşmir,,37.9763917,32.5230167,,
1576a,Pamukpınar,,37.919975,32.4426833,,
1576d,Pamukpınar,,37.9201084,32.4427417,,
1577a,Esatpaşa,,37.9223917,32.4441417,,
1577d,Esatpaşa,,37.9226083,32.4442917,,
1578a,Kuytu,,37.9220834,32.44725,,
1578d,Kuytu,,37.9217417,32.4474417,,
1579a,Sezer,,37.9187417,32.4485083,,
1579d,Sezer,,37.918525,32.448625,,
157a,Erhat,,37.8304666,32.4276333,,
157d,Erhat,,37.830325,32.4277083,,
1580a,Şehit Cafer Temel,,37.9584834,32.5268333,,
1580d,Şehit Cafer Temel,,37.9583166,32.52695,,
1581a,Memko,,37.9557833,32.5294333,,
1581d,Memko,,37.9558667,32.5295583,,
1582a,Mübah,,37.9548333,32.5309,,
1582d,Mübah,,37.95485,32.53095,,
1583a,Akşam,,37.9517167,32.5308167,,
1583d,Akşam,,37.9518,32.5309166,,
1584a,Sancaktepe Parkı,,37.9519334,32.5291667,,
1585a,Gönüllü,,37.9492417,32.53335,,
1585d,Gönüllü,,37.9492583,32.5335166,,
1586a,Kağıthane,,37.9498817,32.536275,,
1586d,Kağıthane,,37.9497517,32.53635,,
1587a,Zambak,,37.9498333,32.5396583,,
1587d,Zambak,,37.9497833,32.5395833,,
1588a,Şehit Enes Kaya,,37.9480417,32.531475,,
1588d,Şehit Enes Kaya,,37.9476833,32.5307,,
1589d,Asude,,37.94755,32.527175,,
158a,Ahmet Paşa,,37.828175,32.4263083,,
158d,Ahmet Paşa,,37.828125,32.4263917,,
1590a,Mizan,,37.94839,32.520137,,
1590d,Mizan,,37.948142,32.520132,,
1591a,Dr. Sadık Ahmet,,37.9487417,32.516975,,
1591d,Dr. Sadık Ahmet,,37.9484,32.5169833,,
1592a,Leylekli Parkı,,37.89141,32.45693,,
1592d,Leylekli Parkı,,37.89148,32.4568,,
1593a,Efe,,38.06421,32.33038,,
1593d,Efe,,38.064327,32.330284,,
1594a,Bosna Pazar,,38.0117083,32.5221917,,
1594d,Bosna Pazar,,38.0117083,32.5221417,,
1595a,Mesaj,,38.0146666,32.5213833,,
1595d,Mesaj,,38.0148754,32.5217743,,
1596a,Bosna Mesaj,,38.0176417,32.5234083,,
1596d,Bosna Mesaj,,38.0177078,32.523674,,
1597a,Kambaş,,38.0177083,32.526325,,
1597d,Kambaş,,38.0176917,32.5262083,,
1598a,Göztepe Konutları,,37.9356833,32.44015,,
1599a,Nizam,,38.0153083,32.5299583,,
1599d,Nizam,,38.015425,32.5297667,,
159a,Olcay Fidanlığı,,37.8247583,32.4253917,,
159d,Olcay Fidanlığı,,37.8246,32.4254333,,
1600a,Vatansever,,38.01505,32.5316417,,
1600d,Vatansever,,38.0151,32.5317,,
1601a,Yaldız,,38.0166416,32.5280083,,
1601d,Yaldız,,38.0165167,32.528025,,
1602a,Yunus Emre Cami,,38.012052,32.534273,,
1602d,Yunus Emre Cami,,38.012057,32.534181,,
1603a,Bosna Komek,,38.010915,32.531049,,
1603d,Bosna Komek,,38.010926,32.531103,,
1604a,Kemerli,,38.0121,32.5264833,,
1604d,Kemerli,,38.0121083,32.5266417,,
1605a,Büyük Hizmet,,38.008025,32.528675,,
1605d,Büyük Hizmet,,38.0079417,32.5289084,,
1606a,Nergiz,,38.0062,32.530075,,
1606d,Nergiz,,38.00625,32.5302083,,
1609a,Yemeni,,38.009237,32.532458,,
1609d,Yemeni,,38.009294,32.532489,,
160a,Seyyah,,37.822775,32.4252583,,
160d,Seyyah,,37.82275,32.425375,,
1610a,Mevlevi,,38.0037667,32.5360833,,
1610d,Mevlevi,,38.0037667,32.5359667,,
1611a,Hasip,,38.002565,32.533411,,
1611d,Hasip,,38.002506,32.533449,,
1612a,Hakikat,,38.004157,32.531782,,
1613a,Reyhan,,38.0041667,32.5260083,,
1614a,Nur,,38.0068083,32.5240417,,
1615a,Akif,,38.008975,32.523175,,
1616a,Ümmü Habibe,,37.993075,32.5909334,,
1616d,Ümmü Habibe,,37.992975,32.590675,,
1617a,Ertuğrul Gazi İlkokulu,,38.0075667,32.5355833,,
1617d,Ertuğrul Gazi İlkokulu,,38.0074833,32.535725,,
1618a,Sümeyye,,38.0103834,32.5356166,,
1618d,Sümeyye,,38.010425,32.5357333,,
1619a,Şenay,,38.01385,32.5356333,,
1619d,Şenay,,38.0138083,32.5357417,,
161a,Antik,,37.8203,32.4267583,,
161d,Antik,,37.82015,32.4269083,,
1620a,Işıklar,,38.0020417,32.526225,,
1620d,Işıklar,,38.0020833,32.5265,,
1621a,Ünaldı,,37.999524,32.526408,,
1621d,Ünaldı,,37.999628,32.526633,,
1622a,Yüzerler,,37.9955916,32.525375,,
1622d,Yüzerler,,37.9949917,32.5249917,,
1623a,Çelikeller,,37.9909633384002,32.5230771303177,,
1623d,Çelikeller,,37.99092,32.52335,,
1624a,Ensar,,38.0036417,32.5294834,,
1624d,Ensar,,38.0035416,32.5295083,,
1625a,Gülbahçe,,37.983899,32.523132,,
1625d,Gülbahçe,,37.983881,32.523343,,
1626a,Japon Parkı,,37.9798667,32.5200833,,
1626d,Japon Parkı,,37.9799083,32.5203083,,
1627a,İftihar,,37.9772083,32.5201083,,
1627d,İftihar,,37.9772167,32.52035,,
1628a,Gürşahin,,37.948083,32.541149,,
1628d,Gürşahin,,37.948352,32.541122,,
1629a,Oruç Reis,,37.8893083,32.48316,,
1629d,Oruç Reis,,37.8892083,32.48316,,
162a,Güldiken,,37.818414,32.428411,,
162d,Güldiken,,37.81845,32.428486,,
1630a,Maden Yolu,,37.89055,32.48498,,
1630d,Maden Yolu,,37.8904583,32.48494,,
1631a,Darıkapısı,,37.8920416,32.48717,,
1631d,Darıkapısı,,37.8919917,32.48722,,
1632a,Manavlı,,37.8942334,32.48678,,
1632d,Manavlı,,37.8944,32.48687,,
1633a,Selçuklu Lisesi,,37.8964583,32.48568,,
1633d,Selçuklu Lisesi,,37.8963083,32.48586,,
1634d,Mehteran,,37.899552,32.488637,,
1635a,Adaklı,,37.900165,32.48683,,
1635d,Adaklı,,37.9006083,32.48681,,
1636a,Fatih Cami,,37.9007667,32.48352,,
1636d,Fatih Cami,,37.9010667,32.48397,,
1637a,Selçuklu Nüfus Müdürlüğü,,37.901225,32.47996,,
1637d,Selçuklu Nüfus Müdürlüğü,,37.901375,32.48014,,
1638a,Konya İl Özel İdare,,37.93894,32.511662,,
1638d,Konya İl Özel İdare,,37.93894,32.511266,,
1639a,Zembil,,37.902958,32.476185,,
1639d,Zembil,,37.903027,32.476289,,
163a,Tokalı,,37.8188166,32.43095,,
163d,Tokalı,,37.818875,32.4310166,,
1640a,İlyas,,37.9052917,32.47707,,
1640d,İlyas,,37.9051334,32.47715,,
1641a,Özalkent Mevlana Cami,,37.9076417,32.47538,,
1641d,Özalkent Mevlana Cami,,37.9076916,32.47555,,
1642a,Safa,,37.9096917,32.4721083,,
1642d,Safa,,37.90961,32.47257,,
1643a,22 Nolu Sağlık Ocağı,,37.9102833,32.47648,,
1643d,22 Nolu Sağlık Ocağı,,37.91025,32.47611,,
1644a,Erçevik,,37.908725,32.47922,,
1644d,Erçevik,,37.908575,32.47906,,
1645a,Düşünce,,37.9062583,32.48204,,
1645d,Düşünce,,37.9060584,32.48179,,
1646a,Akbulut,,37.904228,32.483648,,
1646d,Akbulut,,37.904417,32.483814,,
1647a,Günyüzü,,37.902794,32.485069,,
1647d,Günyüzü,,37.902842,32.485359,,
1648a,Halıören,,37.904425,32.48759,,
1648d,Halıören,,37.904112,32.487677,,
1649d,Uhud Cami,,37.90605,32.49025,,
164a,Sapandağı,,37.81955,32.43365,,
164d,Sapandağı,,37.8195917,32.4337083,,
1650d,İskan,,37.9079,32.4892833,,
1651a,Aydınlıkevler Cami,,37.910397,32.489854,,
1652a,İstasyon,,37.8665166,32.47842,,
1652d,İstasyon,,37.866575,32.47843,,
1653a,Asya,,37.853264,32.665544,,
1653d,Asya,,37.853507,32.665593,,
1654a,Metanet,,37.880979,32.453926,,
1654d,Metanet,,37.881816,32.454288,,
1655a,Başkent Hastanesi,,37.88383,32.457483,,
1655d,Başkent Hastanesi,,37.883908,32.4571,,
1656a,Novotel,,37.886235,32.460013,,
1656d,Novotel,,37.886397,32.460785,,
1657a,İncedere,,37.899477,32.451874,,
1657d,İncedere,,37.899556,32.45188,,
1658a,Eşrefoğlu İlkokulu,,37.8894917,32.464775,,
1658d,Eşrefoğlu İlkokulu,,37.8897417,32.4645583,,
1659a,Boyalı,,37.89065,32.46785,,
1659d,Boyalı,,37.8909333,32.46775,,
165a,Topraklık,,37.8171417,32.434225,,
165d,Topraklık,,37.8171083,32.4343667,,
1660a,Eski Sille Cd,,37.89135,32.4718166,,
1660d,Eski Sille Cd,,37.8916667,32.4719,,
1661a,Mahmut Sami Ramazanoğlu İhl,,37.894625,32.481075,,
1661d,Mahmut Sami Ramazanoğlu İhl,,37.894825,32.480775,,
1662a,Konevi Lisesi,,37.8973916,32.4843583,,
1662d,Konevi Lisesi,,37.89775,32.4843167,,
1663a,Mukaddemi,,37.886082,32.479238,,
1663d,Mukaddemi,,37.886168,32.479152,,
1664a,Necmettin Erbakan Parkı,,37.878075,32.48652,,
1665d,Maliye,,37.8761834,32.48488,,
1666a,Uluşahin,,37.877041,32.4826,,
1666d,Uluşahin,,37.87705,32.482713,,
1667a,15 Temmuz Şehitler İlkokulu,,37.8842916,32.4766333,,
1667d,15 Temmuz Şehitler İlkokulu,,37.884125,32.4765917,,
1668a,Fahrettin Ayaz,,37.864059,32.477179,,
1668d,Fahrettin Ayaz,,37.864142,32.476955,,
1669a,İbrahim Müteferrika,,37.8800333,32.47815,,
1669d,İbrahim Müteferrika,,37.880143,32.478391,,
166a,Çayırlı,,37.830775,32.431275,,
166d,Çayırlı,,37.8306083,32.4315417,,
1670a,Kibrit Cami,,37.8821833,32.47368,,
1670d,Kibrit Cami,,37.8819917,32.47359,,
1671a,Şefikcan,,37.8833917,32.47083,,
1671d,Şefikcan,,37.8832583,32.47064,,
1672a,Alemdar Sultan Cami,,37.885825,32.46464,,
1672d,Alemdar Sultan Cami,,37.885975,32.46482,,
1673a,Uzunpınar,,37.8888083,32.46011,,
1673d,Uzunpınar,,37.8888834,32.46038,,
1674a,Kalemoğlu,,37.8932334,32.46125,,
1674d,Kalemoğlu,,37.8928334,32.46142,,
1675a,Arıburun,,37.89535,32.46193,,
1675d,Arıburun,,37.89535,32.46222,,
1676a,Ermek,,37.8983083,32.46284,,
1676d,Ermek,,37.89825,32.46312,,
1677a,14 Nolu Sağlık Ocağı,,37.9012083,32.46427,,
1677d,14 Nolu Sağlık Ocağı,,37.9010583,32.46446,,
1678a,Rauf Denktaş,,37.8826917,32.48724,,
1678d,Rauf Denktaş,,37.88285,32.48733,,
1679a,Eraydın,,37.8864583,32.48231,,
1679d,Eraydın,,37.8865333,32.4825,,
167a,Ekinci,,37.828814,32.43332,,
167d,Ekinci,,37.828843,32.433475,,
1680a,Otlukbeli,,37.8888083,32.48045,,
1680d,Otlukbeli,,37.8887,32.48103,,
1681a,Büyükbayram Ortaokulu,,37.890725,32.47776,,
1681d,Büyükbayram Ortaokulu,,37.8909917,32.47785,,
1682a,Yeditepe,,37.8938417,32.47621,,
1682d,Yeditepe,,37.8944417,32.47576,,
1683a,Gökçedağ,,37.897325,32.47163,,
1683d,Gökçedağ,,37.8972583,32.47206,,
1684a,Salkım,,37.8987417,32.46976,,
1684d,Salkım,,37.8993084,32.46942,,
1685a,Arif,,37.901225,32.46628,,
1685d,Arif,,37.9013617,32.46666,,
1686a,Timurtaş,,37.9038583,32.46299,,
1686d,Timurtaş,,37.9043417,32.46275,,
1687a,Günlük,,37.905626,32.460565,,
1687d,Günlük,,37.905621,32.460929,,
1688a,Tertip,,37.908593,32.456727,,
1688d,Tertip,,37.90866,32.456853,,
1689a,Beşerler Cami,,37.911423,32.45412,,
1689d,Beşerler Cami,,37.911478,32.454287,,
168a,Sağlamtaş,,37.825825,32.4347417,,
168d,Sağlamtaş,,37.825775,32.4348917,,
1690a,Erenköy Hareket Merkezi,,37.913601,32.451705,,
1690d,Erenköy Hareket Merkezi,,37.914159,32.451206,,
1691a,Petekte,,37.91585,32.44572,,
1691d,Petekte,,37.9159583,32.44587,,
1692a,Karyağar,,37.9150083,32.448325,,
1692d,Karyağar,,37.915125,32.4486,,
1693a,Ted Koleji,,37.9258833,32.43645,,
1693d,Ted Koleji,,37.9259,32.43656,,
1694a,Karlıdere,,37.927225,32.43418,,
1694d,Karlıdere,,37.9273,32.43425,,
1695a,Daribeka,,37.9283333,32.42972,,
1695d,Daribeka,,37.928375,32.42981,,
1696a,Sille Mezarlığı,,37.9288,32.42603,,
1696d,Sille Mezarlığı,,37.9288666,32.42602,,
1697a,Sille Halk Kütüphanesi,,37.927519,32.422422,,
1697d,Sille Halk Kütüphanesi,,37.927619,32.42242,,
1698a,Sille,,37.927075,32.419457,,
1698d,Sille,,37.927149,32.419425,,
1699a,Sille Çay Cami,,37.925999,32.417464,,
1699d,Sille Çay Cami,,37.926099,32.417464,,
169a,Eynesli,,37.8240917,32.4365083,,
169d,Eynesli,,37.823946,32.436731,,
16a,Kızılay Hastanesi,,37.866343,32.497633,,
16d,Kızılay Hastanesi,,37.866419,32.4983954,,
1700a,Sille Son Durak,,37.926413,32.414305,,
1700d,Sille Son Durak,,37.926453,32.414336,,
1701a,Sille Baraji,,37.931725,32.401875,,
1701d,Sille Baraji,,37.9314334,32.40175,,
1702a,Baraj,,37.94126,32.380409,,
1702d,Baraj,,37.94126,32.380509,,
1703a,Tatköy Baraj,,37.944184,32.377341,,
1703d,Tatköy Baraj,,37.944098,32.377261,,
1704a,Baraj 2,,37.9463083,32.3754083,,
1704d,Baraj 2,,37.9463,32.37535,,
1705a,16452. Sk,,37.9499916,32.3731833,,
1705d,16452. Sk,,37.9499916,32.3730833,,
1706a,Tatköy Yol Ayrımı,,37.95255,32.3705417,,
1706d,Tatköy Yol Ayrımı,,37.9526084,32.3703917,,
1707a,Baraj 1,,37.9532666,32.3673667,,
1707d,Baraj 1,,37.9532167,32.3673416,,
1708a,Tatköy İlkokulu,,37.9545417,32.365225,,
1708d,Tatköy İlkokulu,,37.9545417,32.3650667,,
1709a,Tatköy Merkez,,37.9545167,32.3623916,,
1709d,Tatköy Merkez,,37.9544583,32.3623417,,
170a,Çalıklı Girişi,,37.8225583,32.4373833,,
170d,Çalıklı Girişi,,37.8225,32.4375583,,
1710a,Tatköy Kumocağı,,37.9393417,32.3919917,,
1710d,Tatköy Kumocağı,,37.9395,32.3921583,,
1711a,Palamut,,37.919225,32.44126,,
1711d,Palamut,,37.919225,32.44136,,
1712a,Nihat,,37.9223,32.43796,,
1712d,Nihat,,37.9222833,32.43807,,
1713a,Terzioğlu Cami,,37.916025,32.45105,,
1713d,Terzioğlu Cami,,37.916075,32.45102,,
1714a,Şehit Mustafa Çalışır,,37.9172083,32.45338,,
1714d,Şehit Mustafa Çalışır,,37.9172417,32.45338,,
1715a,Hira 1,,37.9185083,32.4557,,
1715d,Hira 1,,37.9184917,32.4556,,
1716a,Songül,,37.920425,32.45454,,
1716d,Songül,,37.92065,32.4549,,
1717a,Dinamik,,37.922528,32.457233,,
1717d,Dinamik,,37.922437,32.457292,,
1718a,Tutkun 1,,37.923842,32.45475,,
1718d,Tutkun 1,,37.923869,32.454814,,
1719a,Davet,,37.9197417,32.45823,,
1719d,Davet,,37.9197667,32.45825,,
1720a,Sefa Yolu,,37.918781,32.460747,,
1720d,Sefa Yolu,,37.918855,32.460672,,
1721a,Nurcan Akpınar İlkokulu,,37.918832,32.463676,,
1721d,Nurcan Akpınar İlkokulu,,37.918822,32.463767,,
1722a,Sinem,,37.911301,32.4583,,
1722d,Sinem,,37.911397,32.458128,,
1723a,Güzel Sanatlar Lisesi,,37.914499,32.462422,,
1723d,Güzel Sanatlar Lisesi,,37.914529,32.462387,,
1724a,Güroğlu,,37.916549,32.464116,,
1724d,Güroğlu,,37.91661,32.463968,,
1725a,3. Mehmed,,37.918528,32.46587,,
1725d,3. Mehmed,,37.918648,32.465763,,
1726a,Babacan,,37.9172583,32.46919,,
1726d,Babacan,,37.9171683,32.46929,,
1727a,Vasıl,,37.914675,32.46681,,
1727d,Vasıl,,37.9145917,32.46686,,
1728a,Tahir Hoca Cami,,37.911221,32.466101,,
1728d,Tahir Hoca Cami,,37.911245,32.466145,,
1729a,17349. Sk,,37.734496,32.466165,,
172a,Sarıyayla,,37.824375,32.439925,,
172d,Sarıyayla,,37.82445,32.439975,,
1730a,Dekor,,37.9089333,32.46632,,
1730d,Dekor,,37.9089417,32.46646,,
1731a,Aynur,,37.906625,32.46711,,
1731d,Aynur,,37.906575,32.46729,,
1732a,Gülrevan,,37.9061333,32.47144,,
1732d,Gülrevan,,37.906075,32.47156,,
1733a,Genç Doktorlar,,37.904125,32.47331,,
1733d,Genç Doktorlar,,37.904125,32.47339,,
1734a,Mecaz,,37.9016083,32.47513,,
1734d,Mecaz,,37.901775,32.47513,,
1735a,Nevin,,37.900225,32.476125,,
1735d,Nevin,,37.9001583,32.4763417,,
1736a,Tekbir,,37.89951,32.480038,,
1736d,Tekbir,,37.899525,32.479952,,
1737a,Köşk,,37.8963667,32.47947,,
1737d,Köşk,,37.89655,32.47943,,
1738a,Şehit Ufuk Başarı Asm,,37.9041183,32.45845,,
1738d,Şehit Ufuk Başarı Asm,,37.9041583,32.45839,,
1739a,Seyyid,,37.902075,32.45673,,
1739d,Seyyid,,37.902125,32.45669,,
173a,Kovanağzı Cd,,37.849486,32.483128,,
173d,Kovanağzı Cd,,37.849475,32.483267,,
1740a,Kınataş,,37.899175,32.45474,,
1740d,Kınataş,,37.8991,32.45463,,
1741a,Rahat,,37.8962917,32.45289,,
1741d,Rahat,,37.896275,32.45281,,
1742a,Hocacihan İhl,,37.8934917,32.45041,,
1742d,Hocacihan İhl,,37.8935,32.45033,,
1743a,Şehit Fethi Sekin Lisesi,,37.758446,32.509558,,
1743d,Şehit Fethi Sekin Lisesi,,37.758512,32.509526,,
1744a,Farabi Cd,,37.759147,32.506489,,
1744d,Farabi Cd,,37.759136,32.506575,,
1745a,İrem,,37.8977583,32.44548,,
1745d,İrem,,37.8977083,32.44546,,
1746a,Özenmiş,,37.899482,32.447577,,
1746d,Özenmiş,,37.89948,32.447674,,
1747a,Arafat Cami,,37.9011833,32.45088,,
1747d,Arafat Cami,,37.9013,32.45122,,
1748a,Barut,,37.9044333,32.45133,,
1748d,Barut,,37.9044333,32.4515999,,
1749a,Sabırhane,,37.906889,32.451886,,
1749d,Sabırhane,,37.906787,32.452079,,
174a,Batıhan,,37.8274583,32.4409417,,
174d,Batıhan,,37.8274583,32.4408417,,
1750a,Örgü,,37.9090083,32.45094,,
1751a,Temizer,,37.910625,32.45268,,
1752a,Amine,,37.761641,32.506275,,
1752d,Amine,,37.761626,32.506377,,
1753a,Mehmet Akdoğan Ortaokulu,,37.892468,32.470736,,
1753d,Mehmet Akdoğan Ortaokulu,,37.892593,32.470666,,
1754a,Mehmet Dalan Cami,,37.891274,32.466165,,
1754d,Mehmet Dalan Cami,,37.89134,32.466133,,
1755a,Koyuncular,,37.8921417,32.462775,,
1755d,Koyuncular,,37.8921833,32.46295,,
1756a,Demirbilek,,37.892945,32.459181,,
1756d,Demirbilek,,37.892951,32.459594,,
1757a,Yeniyol,,37.8961417,32.46089,,
1757d,Yeniyol,,37.8961666,32.46095,,
1758a,Kanuni Sultan Süleyman Ortaokulu,,37.8987166,32.45807,,
1758d,Kanuni Sultan Süleyman Ortaokulu,,37.8987417,32.4581,,
1759a,Tozlukbeli,,37.900725,32.45942,,
1759d,Tozlukbeli,,37.900625,32.45936,,
175a,Canbazlar,,37.82956,32.437654,,
175d,Canbazlar,,37.8296,32.437739,,
1760a,Bingöl,,37.901322,32.46225,,
1760d,Bingöl,,37.901387,32.462271,,
1761a,Nefir,,37.877744,32.472469,,
1761d,Nefir,,37.877682,32.47242,,
1762a,Sırmakeş,,37.878775,32.47006,,
1762d,Sırmakeş,,37.878825,32.47003,,
1763a,Mehmet Akif Cami,,37.880431,32.466368,,
1763d,Mehmet Akif Cami,,37.88052,32.466427,,
1764a,Kargı,,37.882001,32.463374,,
1764d,Kargı,,37.882062,32.463438,,
1766a,Tekke Mezarlığı,,37.883307,32.46062,,
1766d,Tekke Mezarlığı,,37.883371,32.460666,,
1767d,Başkent Hastanesi Acil,,37.8847916,32.45715,,
1768a,Sezai,,37.8853834,32.4543167,,
1768d,Sezai,,37.8855667,32.4543,,
1769a,Dedeler,,37.886633,32.451086,,
1769d,Dedeler,,37.886724,32.451129,,
176a,Bakırdağı,,37.8308583,32.4362583,,
176d,Bakırdağı,,37.830875,32.4361083,,
1770a,Şehitler Cami,,37.888364,32.448082,,
1770d,Şehitler Cami,,37.888417,32.448194,,
1771a,Cihan,,37.884588,32.444831,,
1771d,Cihan,,37.884573,32.444949,,
1772a,Ağırsu,,37.88075,32.44387,,
1773a,Fazlı,,37.8829667,32.4395583,,
1773d,Fazlı,,37.8828666,32.439425,,
1774a,Tatminkar,,37.885966,32.439204,,
1774d,Tatminkar,,37.885995,32.438914,,
1775a,Hazal,,37.664858,32.598354,,
1775d,Hazal,,37.665218,32.598425,,
1776a,Banket,,37.883257,32.433448,,
1777a,Civan,,37.88725,32.43466,,
1778a,Seyfullah Cami,,37.8898833,32.43678,,
1779a,Yurtseven,,37.892375,32.44006,,
1779d,Yurtseven,,37.892425,32.44006,,
177a,Yerleşen,,37.8328917,32.4349917,,
177d,Yerleşen,,37.8328583,32.4349084,,
1780a,Azam,,37.890525,32.4440167,,
1780d,Azam,,37.8906167,32.4441667,,
1781a,Nazlı,,38.022449,32.490353,,
1781d,Nazlı,,38.022367,32.490322,,
1782a,Edebalı,,37.88447,32.45454,,
1782d,Edebalı,,37.88445,32.45458,,
1783a,Hekimbaşı,,37.8825417,32.45174,,
1783d,Hekimbaşı,,37.8826,32.45178,,
1784a,Taşburun,,37.890826,32.448422,,
1784d,Taşburun,,37.890692,32.448538,,
1785a,Mantar,,37.88264,32.44914,,
1785d,Mantar,,37.8826,32.44915,,
1787a,11 Nolu Sağlık Ocağı,,37.8865833,32.44537,,
1787d,11 Nolu Sağlık Ocağı,,37.886374,32.445448,,
1788a,Deresuyu,,37.88822,32.4564,,
1788d,Deresuyu,,37.88826,32.45624,,
1789a,Seyit Emre,,37.922344,32.453511,,
1789d,Seyit Emre,,37.922397,32.453554,,
178a,Çavuşlar,,37.829425,32.4495917,,
178d,Çavuşlar,,37.8294583,32.4496917,,
1790a,Hocacihan Kuba Cami,,37.89035,32.4419417,,
1790d,Hocacihan Kuba Cami,,37.890525,32.441925,,
1791a,Alaybeyi,,37.89355,32.44113,,
1791d,Alaybeyi,,37.8935917,32.44124,,
1792a,Evliyalar,,37.8950667,32.43943,,
1792d,Evliyalar,,37.895,32.43948,,
1793a,Altınok,,37.8962667,32.44148,,
1793d,Altınok,,37.89625,32.44147,,
1794a,Özyer,,37.8938833,32.4339333,,
1794d,Özyer,,37.893775,32.4338,,
1795a,Sarayköy,,37.9017083,32.4055333,,
1795d,Sarayköy,,37.9016834,32.4053833,,
1796a,Rahman Cami,,37.9021417,32.4019917,,
1796d,Rahman Cami,,37.9020083,32.4019584,,
1797a,13193. Sk,,37.8992667,32.4001834,,
1797d,13193. Sk,,37.8990584,32.400175,,
1798a,Sarayköy Merkez,,37.8977334,32.3995,,
1798d,Sarayköy Merkez,,37.8976917,32.3996,,
1799a,13206. Sk,,37.9131917,32.3773166,,
1799d,13206. Sk,,37.91315,32.3773333,,
179a,Orta Cami,,37.827475,32.4534917,,
179d,Orta Cami,,37.8275833,32.4535,,
17a,İl Milli Eğitim Müdürlüğü,,37.8655167,32.50088,,
1800a,Sarayköy Mezarlığı,,37.9139833,32.37455,,
1800d,Sarayköy Mezarlığı,,37.9139916,32.374325,,
1801a,Nezaketli,,37.8935583,32.4734917,,
1801d,Nezaketli,,37.8937917,32.4736916,,
1802a,Ketenciler Sanayi,,37.96518,32.6521,,
1802d,Ketenciler Sanayi,,37.9647,32.65218,,
1803a,Sarayköy Yolu,,37.900432,32.410343,,
1803d,Sarayköy Yolu,,37.900645,32.410064,,
1804a,Konya Gıda Ve Tarım Üniversitesi,,37.876025,32.47491,,
1804d,Konya Gıda Ve Tarım Üniversitesi,,37.876396,32.474775,,
1805a,Haşmetli,,37.8767166,32.47243,,
1805d,Haşmetli,,37.8769083,32.47264,,
1806a,Konya Şeker Fabrikası,,37.8772833,32.46913,,
1806d,Konya Şeker Fabrikası,,37.8774583,32.46917,,
1807a,Göktürkler,,37.8780833,32.46402,,
1807d,Göktürkler,,37.878275,32.46408,,
1808a,Cennet Pınar,,37.8785167,32.46113,,
1808d,Cennet Pınar,,37.8787,32.46122,,
1809a,Hacıköy,,37.879375,32.45586,,
1809d,Hacıköy,,37.87955,32.45596,,
180a,Zafer 2,,37.8269,32.4560167,,
180d,Zafer 2,,37.82695,32.4560834,,
1810a,Vişneli,,37.87975,32.449686,,
1810d,Vişneli,,37.880023,32.449707,,
1811a,Başakçı,,37.8798083,32.4464417,,
1811d,Başakçı,,37.88005,32.4467,,
1812a,Kocakent,,37.8798666,32.4429666,,
1812d,Kocakent,,37.8801084,32.4429583,,
1813a,Uygur,,37.880857,32.43856,,
1813d,Uygur,,37.881024,32.438715,,
1814a,Pekşenler,,37.8817167,32.4353,,
1814d,Pekşenler,,37.88201,32.4348,,
1815a,Defterci,,37.879871,32.431404,,
1815d,Defterci,,37.880242,32.43134,,
1816a,Eski Meram Tıp,,37.8774583,32.4300583,,
1816d,Eski Meram Tıp,,37.8777167,32.429975,,
1817a,Arıtma Tesisleri,,37.87437,32.428457,,
1817d,Arıtma Tesisleri,,37.874257,32.428061,,
1818a,Çığlı,,37.870375,32.4258583,,
1818d,Çığlı,,37.8704417,32.4257667,,
1819a,Gökçeyer,,37.868159,32.424811,,
1819d,Gökçeyer,,37.868229,32.424666,,
181a,Şensesli,,37.825575,32.460325,,
181d,Şensesli,,37.82565,32.4603833,,
1820a,Demeç,,37.8653333,32.425375,,
1820d,Demeç,,37.8655333,32.425225,,
1821a,Huzurevi,,37.862418,32.424688,,
1821d,Huzurevi,,37.862327,32.424709,,
1822a,Başkalaycılar,,37.85935,32.423009,,
1822d,Başkalaycılar,,37.859314,32.422907,,
1823a,Köyceğiz,,37.8575609,32.421898,,
1823d,Köyceğiz,,37.857503,32.421968,,
1824a,Köyceğiz Mezarlığı,,37.856648,32.419452,,
1824d,Köyceğiz Mezarlığı,,37.856726,32.419399,,
1825a,Bolvadin,,37.855733,32.416958,,
1825d,Bolvadin,,37.855803,32.416909,,
1826a,Medet,,37.855724,32.412199,,
1826d,Medet,,37.855769,32.412135,,
1827a,Dere,,37.855925,32.4088083,,
1827d,Dere,,37.855943,32.408789,,
1828a,Dere Cumhuriyet İlkokulu,,37.856746,32.405888,,
1829a,Meram Ptt,,37.857322,32.401267,,
182a,Taş,,37.824444,32.463513,,
182d,Taş,,37.824466,32.463546,,
1830a,Saraylı,,37.9054083,32.39565,,
1830d,Saraylı,,37.905425,32.3957583,,
1831a,Tepehan,,37.858306,32.397753,,
1832a,Seslikaya,,37.857957,32.394883,,
1833a,Aşıklar Cami,,37.856779,32.391562,,
1834a,Elektrik,,37.855455,32.390091,,
1835a,Çatıkkaş,,37.854761,32.388391,,
183a,Antalya Çevre Yolu,,37.8243083,32.4662,,
183d,Antalya Çevre Yolu,,37.8245917,32.466125,,
1842a,Konya Dedemli Mah. 1,,37.65258,32.601965,,
1843a,Konya Dedemli Mah. 2,,37.650998,32.599501,,
1844a,Konya Dedemli Mah. 3,,37.647664,32.601731,,
1845a,Konya Dedemli Mah. 4,,37.648094,32.604977,,
1846a,Konya Dedemli Mah. 5,,37.648734,32.608168,,
1847a,Konya Dedemli Mah. 6,,37.654133,32.60446,,
1848a,Konya Dedemli Mah. 7,,37.656389,32.602942,,
1849a,Konya Çumra Yolu 1,,37.658837,32.602248,,
1849d,Konya Çumra Yolu 1,,37.658953,32.602625,,
184a,Şerefler,,37.825675,32.4694833,,
184d,Şerefler,,37.825985,32.4693633,,
1850a,Konya Çumra Yolu 2,,37.662994,32.599573,,
1850d,Konya Çumra Yolu 2,,37.663076,32.599825,,
1851a,Konya Çumra Yolu 3,,37.667364,32.596659,,
1851d,Konya Çumra Yolu 3,,37.667444,32.597035,,
1852a,Hoşbu,,37.81055,32.492778,,
1852d,Hoşbu,,37.81043,32.4927842,,
1853a,Halil İbrahim Kılıç Cami,,37.81328,32.490289,,
1853d,Halil İbrahim Kılıç Cami,,37.813206,32.490224,,
1854a,Sarayköy İmam Azam Cami,,37.898341,32.405729,,
1854d,Sarayköy İmam Azam Cami,,37.898436,32.405622,,
1855a,Cemel Ali Dede Türbesi,,37.8554333,32.4236166,,
1855d,Cemel Ali Dede Türbesi,,37.855361,32.423716,,
1856a,Niğde,,37.8550333,32.4208333,,
1856d,Niğde,,37.854994,32.420814,,
1857a,Gazeteci,,37.8548,32.4184166,,
1857d,Gazeteci,,37.854799,32.418379,,
1858a,Dere Cd,,37.8556334,32.41395,,
1858d,Dere Cd,,37.855614,32.413878,,
185a,Kozan,,37.8262166,32.4585334,,
185d,Kozan,,37.8262334,32.4586833,,
1861a,Görkem,,38.028275,32.488455,,
1861d,Görkem,,38.02834,32.488481,,
1862a,Özcan,,37.8983517,32.4485,,
1862d,Özcan,,37.8981033,32.4485,,
1863a,Sosyal,,37.8956083,32.4448083,,
1863d,Sosyal,,37.895265,32.444775,,
1864a,Batarya,,37.892525,32.442425,,
1864d,Batarya,,37.89235,32.4427833,,
1865a,Sadık,,37.994175,32.5144,,
1865d,Sadık,,37.9944833,32.5142167,,
1866a,Alemdar Park,,37.9094333,32.454325,,
1866d,Alemdar Park,,37.90934243728118,32.454487178474665,,
1867a,Fizik Tedavi Hst,,37.993536,32.483759,,
1867d,Fizik Tedavi Hst,,37.993598,32.4839,,
1868a,Akıl Ve Ruh Sağlığı Hastanesi,,37.99009,32.47935,,
1868d,Akıl Ve Ruh Sağlığı Hastanesi,,37.989975,32.47935,,
1869a,Üftade,,37.9592167,32.5292883,,
186d,Bitki,,37.8258583,32.4666583,,
1870a,Karabük,,37.9587417,32.5334417,,
1871a,Ebu Müslim,,37.9563333,32.5368584,,
1872a,Gamzeli Yüz,,37.9527166,32.5386916,,
1873a,Osman Demir İlkokulu,,37.953825,32.5256917,,
1874a,Büyükşahin,,37.9454,32.5204666,,
1874d,Büyükşahin,,37.9452083,32.520625,,
1875a,Zafer Sanayi,,37.94155,32.5230166,,
1875d,Zafer Sanayi,,37.9414,32.5233417,,
1876a,Tırsan Sanayi,,37.9361583,32.524675,,
1876d,Tırsan Sanayi,,37.9360084,32.524875,,
1877a,Selçuklu Cami,,37.9323417,32.524425,,
1877d,Selçuklu Cami,,37.9319583,32.5245417,,
1878a,Hacılar,,37.9286417,32.5225083,,
1878d,Hacılar,,37.928525,32.5225417,,
1879a,Haskon,,37.925375,32.5194083,,
1879d,Haskon,,37.925075,32.5194917,,
187d,Şifa Hatun Lisesi,,37.807833,32.416239,,
1880a,İstikamet,,37.9219584,32.5162416,,
1880d,İstikamet,,37.9218166,32.5164333,,
1881a,Çaman,,37.9188417,32.512875,,
1881d,Çaman,,37.9186417,32.5129083,,
1882a,Konya,,38.014227,32.534392,,
1882d,Konya,,38.0142,32.534432,,
1883a,Tevhid Cami,,37.8437583,32.4473084,,
1884a,Fizik Tedavi,,37.992988,32.485038,,
1884d,Fizik Tedavi,,37.99299,32.485123,,
1885a,Aşağı Pınarbaşı Mezarlığı,,38.0361167,32.59795,,
1886a,16714. Sk,,38.039625,32.5978416,,
1887a,16752. Sk,,38.043051,32.596473,,
1888a,16814. Sk,,38.0473583,32.593625,,
1889a,16808. Sk,,38.0489583,32.5964166,,
188a,Kocaman,,37.8295833,32.46195,,
188d,Kocaman,,37.829575,32.461925,,
1890a,Yeşil Bursa,,37.8574167,32.6182917,,
1891a,14651. Sk,,37.8003167,32.6617333,,
1892a,Aksaray,,37.9537833,32.58125,,
1892d,Aksaray,,37.9539833,32.5812,,
1893a,4. Organize Girişi,,37.9544333,32.5854667,,
1893d,4. Organize Girişi,,37.95465,32.5855083,,
1894a,418. Sk,,37.9554417,32.591975,,
1894d,418. Sk,,37.9556833,32.5919833,,
1895a,420. Sk,,37.9568667,32.6013,,
1895d,420. Sk,,37.9571334,32.6015666,,
1896a,Aksaray D 300 Yolu,,37.9576667,32.6064417,,
1896d,Aksaray D 300 Yolu,,37.9579,32.6064833,,
1897a,Aksaray Çevre Yolu,,37.960357,32.624384,,
1897d,Aksaray Çevre Yolu,,37.960687,32.624188,,
1898a,Bora,,37.857308,32.65017,,
1898d,Bora,,37.857416,32.65016,,
1899d,Ereğli Yolu Hüyük,,37.846409,32.725954,,
189a,Nacizane,,37.8309417,32.457875,,
189d,Nacizane,,37.8310667,32.4578833,,
18a,Ayna,,37.862161,32.500985,,
1900a,Hamzazade,,37.8105417,32.51455,,
1900d,Hamzazade,,37.8105083,32.5144084,,
1905a,Karşıköy,,37.9115517,32.4888917,,
1905d,Karşıköy,,37.9116083,32.4891133,,
1906a,Bakırtolu Girişi,,37.793577,32.813462,,
1906d,Bakırtolu Girişi,,37.793399,32.813441,,
1909a,Muhafaza,,37.93205,32.46655,,
1909d,Muhafaza,,37.9319,32.46665,,
190a,Samuray,,37.8341417,32.4595917,,
190d,Samuray,,37.8342417,32.459525,,
1910a,Meral,,37.9297833,32.4665417,,
1910d,Meral,,37.9296417,32.4666167,,
1911a,Korcan,,37.926232,32.467973,,
1911d,Korcan,,37.926256,32.468075,,
1912a,Talip,,37.924613,32.472935,,
1912d,Talip,,37.924768,32.472897,,
1914a,Yeni Meram Tıp,,37.884719,32.432675,,
1914d,Yeni Meram Tıp,,37.884745,32.432863,,
1917a,Çevre Yolu 10,,37.9004,32.535925,,
1917d,Çevre Yolu 10,,37.90031,32.53561,,
1918a,Çevre Yolu 11,,37.9119084,32.523175,,
1918d,Çevre Yolu 11,,37.9117,32.52295,,
1919a,Reisköy,,37.970723,32.612544,,
1919d,Reisköy,,37.970662,32.612404,,
191a,Narinli,,37.8361083,32.461175,,
191d,Narinli,,37.8363083,32.4611917,,
1920a,Organize Müdürlüğü,,37.9745083,32.610825,,
1920d,Organize Müdürlüğü,,37.974427,32.610666,,
1921a,Evrenköy 1,,37.978875,32.6087917,,
1921d,Evrenköy 1,,37.978712,32.608601,,
1922a,Evrenköy,,37.9823583,32.6071083,,
1922d,Evrenköy,,37.982216,32.606976,,
1923a,Yükselen,,37.985175,32.604225,,
1923d,Yükselen,,37.984986,32.604106,,
1924a,Kaşınhanı Alt Geçit,,37.7032333,32.5641833,,
1924d,Kaşınhanı Alt Geçit,,37.703208,32.564235,,
1925a,Menderes,,37.701349,32.565171,,
1925d,Menderes,,37.701411,32.565236,,
1926a,Akıncılar Parkı,,37.902853,32.467104,,
1926d,Akıncılar Parkı,,37.902952,32.466846,,
1927a,Beyazsu,,37.901919,32.471595,,
1927d,Beyazsu,,37.902157,32.471853,,
1928a,Nakışlı,,37.900108,32.473703,,
1928d,Nakışlı,,37.900193,32.473923,,
1929a,Dağpınar,,37.883214,32.509135,,
1929d,Dağpınar,,37.88329,32.509237,,
192a,Panel,,37.8385993,32.4624248,,
192d,Panel,,37.8384833,32.4623,,
1930a,Ali Ulvi Kurucu,,37.8851447,32.505625,,
1930d,Ali Ulvi Kurucu,,37.885225,32.5059,,
1931a,Şair Senihi,,37.886708,32.502039,,
1931d,Şair Senihi,,37.88671,32.502322,,
1932a,Hacı Faik,,37.933476,32.463773,,
1932d,Hacı Faik,,37.9335,32.463848,,
1933a,Sabit,,37.93656,32.465165,,
1933d,Sabit,,37.936566,32.465232,,
1934a,Seyfi,,37.93908,32.463773,,
1934d,Seyfi,,37.938932,32.464052,,
1935a,Demirkıran,,37.930922,32.477959,,
1935d,Demirkıran,,37.930905,32.47812,,
1936a,Hısım,,37.927862,32.478888,,
1936d,Hısım,,37.927996,32.478824,,
1937a,Naz,,37.92974,32.481849,,
1937d,Naz,,37.929807,32.481635,,
1938a,Dokumalı,,37.93348,32.481956,,
1938d,Dokumalı,,37.933446,32.481677,,
1939a,Yazlık,,37.798425,32.513299,,
1939d,Yazlık,,37.798229,32.513166,,
193a,Kelleciler,,37.8480166,32.4662833,,
193d,Kelleciler,,37.84815,32.46615,,
1940a,15294. Sk,,37.77992,32.521398,,
1940d,15294. Sk,,37.77996,32.521505,,
1941a,Hanefi Aytekin İlkokulu,,37.781424,32.526112,,
1941d,Hanefi Aytekin İlkokulu,,37.781412,32.526021,,
1942a,Alabayır,,37.783998,32.524911,,
1942d,Alabayır,,37.783989,32.524833,,
1943a,Uğuray,,37.837057,32.480151,,
1943d,Uğuray,,37.837161,32.480172,,
1944a,Bayramoğlu,,37.9517917,32.4691361,,
1944d,Bayramoğlu,,37.9517583,32.469075,,
1945a,1. Abdülhamid,,37.966433,32.488688,,
1945d,1. Abdülhamid,,37.966576,32.488463,,
1947a,3. Selim,,37.968865,32.490475,,
1947d,3. Selim,,37.969041,32.490149,,
1948a,4. Mustafa,,37.972365,32.493029,,
1948d,4. Mustafa,,37.972491,32.492826,,
1949a,2. Mahmud,,37.977128,32.493276,,
1949d,2. Mahmud,,37.977041,32.492973,,
194a,Haydar Efendi Cami,,37.850125,32.465475,,
194d,Haydar Efendi Cami,,37.8500417,32.4653583,,
1950a,Mescidi Aksa,,37.852345,32.472433,,
1950d,Mescidi Aksa,,37.852353,32.47228,,
1951a,Albayrak,,37.954539,32.469522,,
1951d,Albayrak,,37.954675,32.469574,,
1952a,İnayet Cami,,37.846702,32.476206,,
1953a,Camikebir,,37.856984,32.399421,,
1954a,Yeşil Yazı Cami,,37.794569,32.517094,,
1954d,Yeşil Yazı Cami,,37.794586,32.517004,,
1955a,Büyükçiçek,,37.8268,32.415551,,
1955d,Büyükçiçek,,37.827016,32.41548,,
1956a,Ulusoylar,,37.827409,32.420188,,
1956d,Ulusoylar,,37.827606,32.420058,,
1957a,Kayakent,,37.919271,32.46989,,
1957d,Kayakent,,37.919353,32.469942,,
1958a,Semavi,,37.917391,32.474684,,
1958d,Semavi,,37.917436,32.474748,,
1959a,İkipınar,,37.958768,32.482919,,
1959d,İkipınar,,37.958998,32.482867,,
195a,Meram Bağları,,37.852936,32.42327,,
195d,Meram Bağları,,37.852968,32.423319,,
1960a,İğdeli Ağıl Mevki,,38.017662,32.389846,,
1960d,İğdeli Ağıl Mevki,,38.017559,32.389824,,
1961d,Yükselen Meşelik,,38.029378,32.362925,,
1962a,Anadağ,,37.787536,32.523101,,
1962d,Anadağ,,37.787519,32.523033,,
1963a,Hisarlık Cd,,37.790988,32.520764,,
1963d,Hisarlık Cd,,37.790977,32.520702,,
1964a,Azimli,,37.794216,32.518491,,
1964d,Azimli,,37.794198,32.518419,,
1966a,Sadakat,,37.801175,32.516475,,
1966d,Sadakat,,37.8012833,32.5162667,,
1967a,Toprak Su Enstitüsü,,37.806351,32.515363,,
1967d,Toprak Su Enstitüsü,,37.8062,32.515089,,
1968a,Tanışlı,,37.82769,32.43246,,
1968d,Tanışlı,,37.827577,32.432542,,
1969a,Alışık,,37.825194,32.429885,,
1969d,Alışık,,37.825154,32.430039,,
196a,Hadis,,37.8311666,32.50555,,
196d,Hadis,,37.8311566,32.505419,,
1970a,Yazan,,37.821637,32.42952,,
1970d,Yazan,,37.821707,32.429715,,
1971a,Taşpınar,,37.81855,32.430576,,
1971d,Taşpınar,,37.818558,32.43071,,
1972a,Altınoluk Cami,,37.816506,32.431375,,
1972d,Altınoluk Cami,,37.816538,32.431469,,
1973a,Tepegöz,,37.813837,32.432392,,
1973d,Tepegöz,,37.813879,32.432476,,
1974a,Osmanlı Cd,,37.724393,32.333485,,
1975a,Uluyayla Cd Üst Geçit,,37.914003,32.500038,,
1975d,Uluyayla Cd Üst Geçit,,37.914174,32.500065,,
1976a,Rümeysa,,37.690083,32.581927,,
1976d,Rümeysa,,37.690153,32.582158,,
1977a,Karaman Yolu Çarıklar 1,,37.684041,32.585798,,
1977d,Karaman Yolu Çarıklar 1,,37.68416,32.586117,,
1978a,Karaman Yolu Çarıklar 2,,37.67966,32.588701,,
1978d,Karaman Yolu Çarıklar 2,,37.67981,32.58899,,
1979a,Karaman Yolu Çarıklar 3,,37.675312,32.59156,,
1979d,Karaman Yolu Çarıklar 3,,37.675417,32.591782,,
197a,Küçük Aymanas,,37.840132,32.503116,,
197d,Küçük Aymanas,,37.840117,32.503008,,
1980a,Parseller Trafo 1,,37.752257,32.510241,,
1980d,Parseller Trafo 1,,37.75223,32.510167,,
1981a,Parseller Trafo 2,,37.750355,32.511473,,
1981d,Parseller Trafo 2,,37.750308,32.511411,,
1982a,Parseller Trafo 3,,37.747636,32.514158,,
1982d,Parseller Trafo 3,,37.747622,32.514084,,
1983a,Parseller Trafo 4,,37.746106,32.511243,,
1983d,Parseller Trafo 4,,37.74615,32.511204,,
1984a,Parseller Trafo 5,,37.748129,32.50881,,
1984d,Parseller Trafo 5,,37.748151,32.508908,,
1985a,Parseller Trafo 6,,37.750729,32.506435,,
1985d,Parseller Trafo 6,,37.750771,32.50654,,
1986a,Abdülmecid,,37.979315,32.491146,,
1986d,Abdülmecid,,37.979452,32.491362,,
1987a,Yerlikaya,,37.785197,32.53262,,
198a,Şehirler,,37.819132,32.468048,,
198d,Şehirler,,37.819172,32.467984,,
1990a,Aslım Cd 1,,37.9508,32.57606,,
1990d,Aslım Cd 1,,37.950821,32.576521,,
1991a,Aslım Cd 2,,37.947275,32.5768917,,
1991d,Aslım Cd 2,,37.947275,32.5773517,,
1992a,Aslım Cd 3,,37.9429333,32.5776,,
1992d,Aslım Cd 3,,37.9429333,32.57799,,
1993a,Aslım Cd 4,,37.9391334,32.5758916,,
1993d,Aslım Cd 4,,37.9390534,32.5764516,,
1994a,Aslım Cd 5,,37.936675,32.5737083,,
1994d,Aslım Cd 5,,37.936555,32.5739983,,
1995a,Kobisan 1,,37.9358334,32.5701833,,
1995d,Kobisan 1,,37.9357234,32.5701833,,
1996a,Kobisan 2,,37.93767,32.5672,,
1996d,Kobisan 2,,37.9378933,32.5673,,
1997a,Kobisan 3,,37.9404417,32.5633833,,
1997d,Kobisan 3,,37.94037,32.56313,,
1998a,Kobisan 4,,37.9423917,32.5604833,,
1998d,Kobisan 4,,37.94237,32.559983,,
1999a,Kobisan 5,,37.941925,32.5579667,,
1999d,Kobisan 5,,37.941795,32.558202,,
199a,Şeyh Şamil Cami,,37.820539,32.468349,,
199d,Şeyh Şamil Cami,,37.820545,32.468279,,
19a,Eski Garaj,,37.8652334,32.5024,,
19d,Eski Garaj,,37.8652334,32.50265,,
2000a,Kobisan 6,,37.9390583,32.555625,,
2000d,Kobisan 6,,37.9390583,32.555755,,
2001a,Kobisan 7,,37.9361666,32.5527917,,
2001d,Kobisan 7,,37.935787,32.552916,,
2002a,Kobisan 8,,37.9329583,32.5515333,,
2002d,Kobisan 8,,37.933016,32.551843,,
2003a,Gülistan Cd 1,,37.9309966,32.5545534,,
2003d,Gülistan Cd 1,,37.9311966,32.5548034,,
2004a,Gülistan Cd 2,,37.9288417,32.5580833,,
2004d,Gülistan Cd 2,,37.9289917,32.5581833,,
2005a,Gülistan Cd 3,,37.9262917,32.56205,,
2005d,Gülistan Cd 3,,37.9265517,32.56219,,
2006a,Aslım Cd 6,,37.9226567,32.5612666,,
2006d,Aslım Cd 6,,37.922655,32.5616645,,
2007a,Aslım Cd 7,,37.919045,32.5579434,,
2007d,Aslım Cd 7,,37.918973,32.558303,,
2008a,Özlem Cd,,37.9163584,32.5555585,,
2008d,Özlem Cd,,37.916257,32.555996,,
2009a,Aslım Cd 8,,37.9133667,32.55465,,
2009d,Aslım Cd 8,,37.9133667,32.55495,,
200a,Mescidi Aksa Cami,,37.8222167,32.4748167,,
200d,Mescidi Aksa Cami,,37.8221667,32.4748333,,
2010a,10565. Sk,,37.9105583,32.5545817,,
2010d,10565. Sk,,37.9105083,32.5547817,,
2011a,Demir Cd,,37.9163333,32.5452,,
2011d,Demir Cd,,37.9163333,32.545,,
2012a,Ayyıldız Cd 1,,37.9189333,32.5454833,,
2012d,Ayyıldız Cd 1,,37.9189333,32.5455833,,
2013a,Ayyıldız Cd 2,,37.9214,32.5477917,,
2013d,Ayyıldız Cd 2,,37.9214,32.5478917,,
2014a,Kupa Cd 1,,37.9247667,32.5497667,,
2014d,Kupa Cd 1,,37.924645,32.54954,,
2015a,Kupa Cd 2,,37.9268,32.546125,,
2015d,Kupa Cd 2,,37.926819,32.545886,,
2016a,Kenitra Cd,,37.9285167,32.5431083,,
2016d,Kenitra Cd,,37.9283167,32.5431083,,
2017a,Medcezir Cd 1,,37.9274667,32.5398667,,
2017d,Medcezir Cd 1,,37.9273767,32.5398667,,
2018a,Medcezir Cd 2,,37.9247083,32.5374083,,
2018d,Medcezir Cd 2,,37.9246083,32.5374583,,
2019a,Medcezir Cd 3,,37.922575,32.5355167,,
2019d,Medcezir Cd 3,,37.922455,32.5356167,,
201a,Fidan,,37.8214083,32.4779083,,
201d,Fidan,,37.8214,32.4778,,
2020a,Medcezir Cd 4,,37.9200833,32.5333917,,
2020d,Medcezir Cd 4,,37.919991,32.533453,,
2021a,Çelik Cd,,37.9183083,32.5350917,,
2021d,Çelik Cd,,37.9184083,32.5350917,,
2022a,Hüda Cd 1,,37.9154167,32.5324583,,
2022d,Hüda Cd 1,,37.9153267,32.5323583,,
2023a,Hüda Cd 2,,37.9177666,32.5287167,,
2023d,Hüda Cd 2,,37.9175666,32.5286067,,
2024a,Hüda Cd 3,,37.919386,32.52578,,
2024d,Hüda Cd 3,,37.91949,32.525914,,
2025a,Gazze Cd 1,,37.8296,32.4771083,,
2025d,Gazze Cd 1,,37.8296,32.4769098,,
2026a,İbrahim Ethem Cami,,37.833065,32.475355,,
2026d,İbrahim Ethem Cami,,37.832966,32.475087,,
2027a,Gazze Cd 2,,37.836706,32.473834,,
2027d,Gazze Cd 2,,37.836675,32.473647,,
2028a,Gazze Cd 3,,37.8386083,32.473175,,
2028d,Gazze Cd 3,,37.8385583,32.473005,,
2029a,Gazze Cd 4,,37.8413583,32.4720417,,
2029d,Gazze Cd 4,,37.84132583,32.4719517,,
202a,Adil Şahin,,37.823201,32.468751,,
202d,Adil Şahin,,37.823122,32.468799,,
2030a,Gazze Cd 5,,37.8445983,32.471525,,
2030d,Gazze Cd 5,,37.8446583,32.471265,,
2031a,Gazze Cd 6,,37.847075,32.472125,,
2031d,Gazze Cd 6,,37.847175,32.472045,,
2032a,Şatır Yolu 2,,37.834172,32.721482,,
2033a,Şehit Abdullah Aslan 2,,37.865846,32.630327,,
2033d,Şehit Abdullah Aslan 2,,37.865903,32.630343,,
2034a,Tolular,,37.845632,32.621129,,
2035a,Kılınçyolu,,37.854976,32.613057,,
2035d,Kılınçyolu,,37.85496,32.613231,,
203a,Gökten,,37.8231666,32.4717667,,
203d,Gökten,,37.82315,32.4716,,
204a,Çetince,,37.826421,32.464813,,
205a,Çarşamba,,37.851518,32.465237,,
2069a,Köyceğiz Kampüs 3,,37.862251,32.416955,,
2069d,Köyceğiz Kampüs 3,,37.86195,32.416759,,
206a,Tapu Ve Kadastro,,37.86035,32.47683,,
2071a,Sakyatan Kanal,,37.795544,32.804031,,
2072a,Bakırtolu Yol Ayrımı,,37.834387,32.789852,,
2073a,Feryadi,,37.887901,32.476583,,
2073d,Feryadi,,37.887958,32.476604,,
2074a,Kılıçarslan,,37.8898666,32.4742167,,
2074d,Kılıçarslan,,37.8898666,32.4743167,,
2075a,Elmas Kuran Kursu,,37.8896334,32.470325,,
2075d,Elmas Kuran Kursu,,37.8897334,32.470325,,
2076a,Adakale Cd,,37.887475,32.467575,,
2076d,Adakale Cd,,37.887555,32.467555,,
2077a,İnanç,,37.8847583,32.4647,,
2077d,İnanç,,37.8848383,32.4647,,
2078a,Şehit Ömer Halisdemir Cd,,37.88258,32.462148,,
2078d,Şehit Ömer Halisdemir Cd,,37.882652,32.462005,,
2079a,Kıyak,,37.8802,32.460946,,
2079d,Kıyak,,37.880268,32.460688,,
207a,Meram Kaymakamlığı,,37.857121,32.469299,,
207d,Meram Kaymakamlığı,,37.857397,32.469356,,
2080a,İkra,,37.849755,32.695307,,
2080d,İkra,,37.849981,32.695382,,
208a,Meram Belediyesi,,37.8562917,32.4715333,,
208d,Meram Belediyesi,,37.8565417,32.4715583,,
2096a,Tatköy 16482. Sk,,37.942031,32.378268,,
2096d,Tatköy 16482. Sk,,37.942031,32.378368,,
2097a,Ahmet Ayhan Cd,,38.006569,32.537984,,
2097d,Ahmet Ayhan Cd,,38.006836,32.537941,,
2098a,Aksaray Yolu Dsi,,38.003599,32.787344,,
2098d,Aksaray Yolu Dsi,,38.003555,32.788583,,
2099d,Sakyatan İlk Giriş,,37.84036,32.775993,,
209a,Meram Sanayi,,37.8546583,32.4677583,,
209d,Meram Sanayi,,37.8546083,32.4673417,,
2100a,Meram Son Durak,,37.837543,32.41751,,
2100d,Meram Son Durak,,37.837605,32.41736,,
2101a,Karatay Hali,,37.8368416,32.5267083,,
2101d,Karatay Hali,,37.83661,32.52692,,
2102a,Kanaatkar,,37.835875,32.4170417,,
2102d,Kanaatkar,,37.83595,32.41715,,
2103a,Mavili,,37.861075,32.482825,,
2103d,Mavili,,37.861185,32.482825,,
2105a,Ünvan,,37.8560667,32.4038667,,
2106a,Akdağ,,37.856398,32.40028,,
2107a,Tansu,,37.856202,32.397399,,
2108a,Yeşil Dere 1,,37.856379,32.393479,,
2109a,Saraykent,,37.912217,32.485253,,
2109d,Saraykent,,37.912255,32.485601,,
210a,Gediz,,37.8530917,32.464575,,
210d,Gediz,,37.8532083,32.4643416,,
2110a,Gaziveren,,37.914498,32.484596,,
2110d,Gaziveren,,37.914573,32.484404,,
2111a,Selçuklu İtfaiye,,37.916822,32.489168,,
2111d,Selçuklu İtfaiye,,37.916875,32.489469,,
2112a,Beşyol,,37.877975,32.49416,,
2112d,Beşyol,,37.87945,32.495149,,
2113a,Pelitözü,,37.856876,32.540093,,
2113d,Pelitözü,,37.8570583,32.54,,
2114a,Ahmet Keleşoğlu Kültür Merkezi,,37.884456,32.46858,,
2114d,Ahmet Keleşoğlu Kültür Merkezi,,37.8842166,32.46837,,
2115a,Erbeyli,,37.904225,32.46032,,
2115d,Erbeyli,,37.9042417,32.46041,,
2116a,Baydar,,37.9248833,32.45012,,
2116d,Baydar,,37.9248167,32.45017,,
2117a,İlham,,37.9250834,32.44662,,
2117d,İlham,,37.9250333,32.44658,,
2118a,Sille Şehir,,37.925925,32.4426,,
2118d,Sille Şehir,,37.925875,32.44257,,
2119a,Tutkun 2,,37.927175,32.43912,,
2119d,Tutkun 2,,37.92715,32.43913,,
211a,Tren Yolu,,37.846631,32.481717,,
211d,Tren Yolu,,37.846701,32.481819,,
2120a,Dönüm,,37.9283417,32.43447,,
2120d,Dönüm,,37.92825,32.4345,,
2121a,Baldağı,,37.808784,32.548804,,
2121d,Baldağı,,37.808803,32.548713,,
2122a,Alarm,,37.811772,32.54676,,
2122d,Alarm,,37.811787,32.546653,,
2124a,Karamevlüt,,37.8973083,32.47599,,
2124d,Karamevlüt,,37.897471,32.476284,,
2125a,80 Binde Devri Alem,,37.8293,32.41287,,
2125d,80 Binde Devri Alem,,37.82934,32.41274,,
2126a,Ardıçlı Merkez,,38.0151917,32.43496,,
2126d,Ardıçlı Merkez,,38.0151583,32.43506,,
2127a,Yükselen Yolu 2,,38.0247417,32.36615,,
2127d,Yükselen Yolu 2,,38.0247417,32.36611,,
2128a,Çardak,,38.034575,32.36183,,
2128d,Çardak,,38.0345334,32.36183,,
2129a,Yükselen Yolu 1,,38.0371417,32.35791,,
2129d,Yükselen Yolu 1,,38.0371083,32.35791,,
212a,Türkoğlu,,37.850525,32.461391,,
212d,Türkoğlu,,37.850587,32.461101,,
2130a,Lavanta,,38.058575,32.33371,,
2130d,Lavanta,,38.0585917,32.33369,,
2131a,Karanfil,,38.06509,32.33334,,
2131d,Karanfil,,38.0651,32.33351,,
2132a,Hasandağı,,37.84005,32.51282,,
2132d,Hasandağı,,37.84,32.51282,,
2133a,Yanıklar,,37.8251584,32.56918,,
2133d,Yanıklar,,37.8252167,32.56937,,
2134a,Hasan Ali Yücel Ortaokulu,,37.821632,32.59918,,
2134d,Hasan Ali Yücel Ortaokulu,,37.821601,32.599226,,
2135a,Ekinköy,,37.8077917,32.64119,,
2135d,Ekinköy,,37.8078917,32.64074,,
2136a,Çancı,,37.8413583,32.53436,,
2136d,Çancı,,37.841389,32.534261,,
2137a,İbrahim Karaoğlu Ortaokulu,,37.8404333,32.53507,,
2137d,İbrahim Karaoğlu Ortaokulu,,37.84021,32.53508,,
2138a,Hacılar Cami,,37.8386917,32.53099,,
2138d,Hacılar Cami,,37.83856,32.53121,,
2139a,Oran,,37.8674,32.6107167,,
2139d,Oran,,37.8674,32.6108167,,
213a,Arifin Cami,,37.8489417,32.458225,,
213d,Arifin Cami,,37.8491,32.4581667,,
2140a,Şen,,37.8632584,32.63456,,
2140d,Şen,,37.8632167,32.63457,,
2141a,Uğur,,37.8607417,32.63861,,
2141d,Uğur,,37.860725,32.63873,,
2142a,Tanzimat,,37.8604917,32.64156,,
2142d,Tanzimat,,37.8605333,32.64162,,
2143a,Çarşamba Çayı 1,,37.84862,32.705032,,
2143d,Çarşamba Çayı 1,,37.848864,32.70507,,
2144a,Sarıcalar,,37.8593583,32.48461,,
2144d,Sarıcalar,,37.8592083,32.48489,,
2145a,Sözbir,,37.84855,32.50633,,
2145d,Sözbir,,37.8487834,32.50622,,
2146a,Dalgıç,,37.7639334,32.4123,,
2146d,Dalgıç,,37.7638333,32.41228,,
2147a,Torbalı,,37.87915,32.52757,,
2147d,Torbalı,,37.8789166,32.52723,,
2148a,Rüzgarlı,,38.06641,32.33135,,
2148d,Rüzgarlı,,38.06636,32.33128,,
2149a,Gürmenekşe,,37.7626,32.40727,,
2149d,Gürmenekşe,,37.7624666,32.40736,,
214a,Erganiler,,37.846798,32.456852,,
214d,Erganiler,,37.846964,32.456627,,
2150a,Memleket,,37.7524584,32.39819,,
2150d,Memleket,,37.7525083,32.39819,,
2151a,17331. Sk,,37.75135,32.4031,,
2151d,17331. Sk,,37.7514166,32.403,,
2152a,Bilecik,,38.06199,32.33144,,
2152d,Bilecik,,38.0619,32.3314,,
2153a,Alakova Son Durak,,37.773025,32.5015917,,
2153d,Alakova Son Durak,,37.773175,32.5014917,,
2154a,Poyrazoğlu,,37.80035,32.4907667,,
2154d,Poyrazoğlu,,37.80035,32.4907083,,
2155a,Akçaköşk Şehitler Cami,,37.7927334,32.4883917,,
2155d,Akçaköşk Şehitler Cami,,37.7926667,32.4883334,,
2156a,İğdere,,37.7961833,32.489175,,
2156d,İğdere,,37.7962834,32.489175,,
2157a,Ketenli,,37.8144434,32.4976917,,
2157d,Ketenli,,37.8144345,32.497525,,
2158a,Ülfet,,37.8274583,32.4871167,,
2158d,Ülfet,,37.8274167,32.4870167,,
2159a,Cengiz Bilge,,37.70684,32.568063,,
2159d,Cengiz Bilge,,37.706647,32.567823,,
215a,Lalebahçe Polis Merkezi,,37.8430083,32.455115,,
215d,Lalebahçe Polis Merkezi,,37.8429417,32.4549083,,
2160a,Yolağzı,,37.7599833,32.538525,,
2160d,Yolağzı,,37.7598917,32.538225,,
2161a,Aslım Cami,,37.712304,32.557607,,
2161d,Aslım Cami,,37.712297,32.557516,,
2162a,Bulgurlu 1,,37.71037,32.55537,,
2162d,Bulgurlu 1,,37.71046,32.55528,,
2163a,17560. Sk,,37.708406,32.556329,,
2163d,17560. Sk,,37.7083083,32.5560417,,
2164a,Kaşınhanı Mezarlığı,,37.706881,32.560223,,
2164d,Kaşınhanı Mezarlığı,,37.7067417,32.55996,,
2165a,Han Cami,,37.704666,32.562714,,
2165d,Han Cami,,37.704566,32.562768,,
2166a,Hara,,37.696245,32.583539,,
2166d,Hara,,37.696385,32.583625,,
2167a,Uzun Kavak,,37.7901084,32.5278917,,
2167d,Uzun Kavak,,37.7902083,32.5278917,,
2168a,Talha,,37.79545,32.535559,,
2168d,Talha,,37.79559,32.535559,,
2169a,Bozdağlar,,37.8190017,32.5267167,,
2169d,Bozdağlar,,37.8190717,32.5267167,,
216a,Cankardeşler,,37.8386,32.4548666,,
216d,Cankardeşler,,37.838625,32.4546583,,
2170a,Bolayır,,37.858877,32.498861,,
2170d,Bolayır,,37.858895,32.498797,,
2171a,Camgöz,,37.7997333,32.5340834,,
2171d,Camgöz,,37.7997834,32.5341167,,
2172a,Olimpiyat Parkı,,37.8077083,32.5402917,,
2172d,Olimpiyat Parkı,,37.80785,32.5401583,,
2173a,Kamil Yaylalı,,37.808161,32.544013,,
2173d,Kamil Yaylalı,,37.808256,32.543987,,
2174a,Gökpınar,,37.74533,32.52952,,
2174d,Gökpınar,,37.74523,32.52937,,
2175d,Aktar,,37.823319,32.524209,,
2176a,17174. Sk,,37.7370417,32.4663917,,
2177a,Beşatlı,,37.8281667,32.5011167,,
2177d,Beşatlı,,37.8284,32.5015667,,
2178a,Şanlı,,37.8372167,32.50485,,
2178d,Şanlı,,37.8371333,32.5047833,,
2179a,Bademli,,37.857425,32.5002583,,
2179d,Bademli,,37.857325,32.50025,,
217a,Süslü,,37.8352917,32.4532583,,
217d,Süslü,,37.8354083,32.4531083,,
2180a,Konuluk,,37.855325,32.5017917,,
2180d,Konuluk,,37.855325,32.5018917,,
2181a,Karaoğlan,,37.854101,32.503008,,
2181d,Karaoğlan,,37.853976,32.502987,,
2182a,Zebercet,,37.8510583,32.504275,,
2182d,Zebercet,,37.8510916,32.504175,,
2183a,Kalenderhane,,37.6720583,32.5936583,,
2183d,Kalenderhane,,37.6719833,32.594,,
2184a,Çardak Son Durak,,37.6502715888827,32.5562340952456,,
2185a,28691. Sk,,37.7132917,32.528675,,
2185d,28691. Sk,,37.713325,32.5286083,,
2186a,15574. Sk,,37.766791,32.51936,,
2186d,15574. Sk,,37.7667167,32.519225,,
2188a,Tablo,,37.780805,32.517497,,
2188d,Tablo,,37.780977,32.517529,,
2189a,Aybahçe Cami,,37.780807,32.514665,,
2189d,Aybahçe Cami,,37.780754,32.514584,,
218a,Harmancık Mezarlığı,,37.8329583,32.4508333,,
218d,Harmancık Mezarlığı,,37.833025,32.4505917,,
2190a,Mengene,,37.8533833,32.5399583,,
2190d,Mengene,,37.8533583,32.5398333,,
2191a,Tren Garı,,37.866455,32.476878,,
2192a,Kaşınhanı Kantar,,37.706864,32.569854,,
2193a,17557. Sk,,37.7136,32.55516,,
2193d,17557. Sk,,37.71352,32.55527,,
2194a,17111. Sk,,37.71146,32.5532,,
2194d,17111. Sk,,37.71156,32.55327,,
2195d,Mahir,,37.87435,32.5418167,,
2196a,Tezerler,,37.815454,32.543525,,
2196d,Tezerler,,37.815414,32.543439,,
2197a,Eski Yıkama,,37.8762246,32.501009,,
2198a,Ahi Evran Mesleki Eğitim Merkezi,,37.926467,32.529068,,
2198d,Ahi Evran Mesleki Eğitim Merkezi,,37.926201,32.528134,,
2199a,14311. Sk,,37.9696083,32.683675,,
2199d,14311. Sk,,37.9697083,32.683675,,
219a,Harmancık Kuba Cami,,37.8298083,32.447225,,
219d,Harmancık Kuba Cami,,37.8301167,32.4471833,,
21a,Mevlana,,37.870236,32.505475,,
2200a,Zencirli 1,,37.9990833,32.8647666,,
2200d,Zencirli 1,,37.9991833,32.8647666,,
2201a,Yeşil Dere 2,,37.854858,32.38994,,
2202a,Akil,,38.029299,32.492063,,
2202d,Akil,,38.029252,32.492268,,
2203a,Kabakcı,,38.02467,32.487923,,
2203d,Kabakcı,,38.024618,32.48781,,
2204a,Özek,,38.022198,32.493738,,
2204d,Özek,,38.022129,32.493674,,
2205a,3. Ana Jet Üssü,,37.964125,32.568325,,
2205d,3. Ana Jet Üssü,,37.964375,32.568125,,
2206a,16724. Sk,,38.0056917,32.6117834,,
2206d,16724. Sk,,38.006075,32.6114917,,
2208a,Selçuklu Bel. Nikah Salonu,,37.945857,32.502687,,
2209a,Genç Değirmen,,38.0092917,32.6159917,,
2209d,Genç Değirmen,,38.0095917,32.6156083,,
220a,Gülyazı,,37.826331,32.445738,,
220d,Gülyazı,,37.826719,32.445679,,
2210a,Ankara,,38.013875,32.62135,,
2210d,Ankara,,38.0143583,32.621175,,
2211a,Fayda Koleji,,38.017075,32.6250583,,
2211d,Fayda Koleji,,38.0174417,32.6247917,,
2212a,Karayolları 3. Bölge,,38.036825,32.6110917,,
2212d,Karayolları 3. Bölge,,38.0369083,32.6109416,,
2213a,Selçuklu Hobi Bahçeleri,,38.007947,32.614358,,
2213d,Selçuklu Hobi Bahçeleri,,38.008245,32.614122,,
2214a,Fadıl,,37.9559834,32.494475,,
2214d,Fadıl,,37.9560333,32.4945917,,
2215a,Ağaçeri,,37.87219,32.514676,,
2215d,Ağaçeri,,37.871725,32.514869,,
2216a,Karatay Üniversitesi,,37.864163,32.536082,,
2216d,Karatay Üniversitesi,,37.864232,32.53583,,
2217a,Hacı Çayı,,37.7629917,32.4051916,,
2217d,Hacı Çayı,,37.762925,32.4053083,,
2218a,Atalı,,37.8053417,32.4127084,,
2218d,Atalı,,37.8052417,32.412775,,
2219a,Atalı 2,,37.804389,32.415112,,
2219d,Atalı 2,,37.804468,32.415112,,
221a,Baki,,37.757451,32.369633,,
2220a,Zümrüttaşı,,37.78126,32.407205,,
2220d,Zümrüttaşı,,37.781164,32.4072,,
2221a,Sızıntı,,37.775289,32.406991,,
2221d,Sızıntı,,37.775249,32.407076,,
2222a,Ömerul Faruk Camii,,37.772731,32.406577,,
2222d,Ömerul Faruk Camii,,37.772729,32.406674,,
2223a,Beybes,,37.76892,32.404174,,
2223d,Beybes,,37.768948,32.404255,,
2224a,Hatıp Mezarlığı,,37.7668083,32.404625,,
2224d,Hatıp Mezarlığı,,37.7668167,32.4046833,,
2225a,Hatıp Cami,,37.76595,32.4063416,,
2225d,Hatıp Cami,,37.7659916,32.4063917,,
2226a,Akıncı,,38.019482,32.493357,,
2226d,Akıncı,,38.019549,32.493432,,
2227a,Ankara Yolu,,38.0247583,32.6339417,,
2227d,Ankara Yolu,,38.0251417,32.6337083,,
2228a,Menekşe,,38.029403,32.642671,,
2228d,Menekşe,,38.029452,32.642762,,
2229a,Koca Yusuf 2,,38.0220667,32.6593834,,
2229d,Koca Yusuf 2,,38.0221583,32.6596167,,
222a,İyican,,37.822075,32.443375,,
222d,İyican,,37.8222,32.443225,,
2230a,16906. Sk,,38.0242917,32.67745,,
2230d,16906. Sk,,38.0243333,32.6775166,,
2231a,5. Sk,,37.9653833,32.62335,,
2231d,5. Sk,,37.965575,32.623775,,
2232a,Aliya İzzet Begoviç,,37.9994917,32.577425,,
2232d,Aliya İzzet Begoviç,,37.9997334,32.5776917,,
2233a,Mekke,,37.98735,32.5230667,,
2233d,Mekke,,37.9872167,32.5232833,,
2234a,775881. Sk,,37.9030917,32.3995083,,
2234d,775881. Sk,,37.903075,32.3994167,,
2235a,16376. Sk,,37.914875,32.3715583,,
2235d,16376. Sk,,37.914975,32.3715083,,
2236a,Hz. Ali Cami,,37.9161583,32.3688583,,
2236d,Hz. Ali Cami,,37.9161583,32.368725,,
2237a,16378. Sk,,37.9185583,32.3667083,,
2237d,16378. Sk,,37.9185083,32.3667083,,
2238a,16373. Sk,,37.921475,32.365475,,
2238d,16373. Sk,,37.921475,32.365525,,
2239a,16370. Sk,,37.9254416,32.3632333,,
2239d,16370. Sk,,37.9255083,32.3632083,,
223a,Karahüyük Mezarlığı,,37.820375,32.4415083,,
223d,Karahüyük Mezarlığı,,37.8203334,32.4411583,,
2240a,16353. Sk,,37.9280416,32.3631917,,
2240d,16353. Sk,,37.9283167,32.3630583,,
2241a,Sulutas Merkez,,37.930066,32.361939,,
2241d,Sulutas Merkez,,37.93005,32.361842,,
2242a,Saray,,37.929834,32.359037,,
2242d,Saray,,37.929758,32.359101,,
2243a,Beyazgül,,37.9398666,32.4996166,,
2243d,Beyazgül,,37.9398833,32.49975,,
2244a,Başkale,,37.9365367,32.4989567,,
2244d,Başkale,,37.9365333,32.499,,
2245a,Sonbirlik Cami,,37.9078083,32.5420417,,
2246a,Makparsan,,37.9085583,32.543325,,
2247a,10618. Sk,,37.9065584,32.546575,,
2248a,Sarmaşık,,37.9027583,32.5457417,,
2249a,Battalgazi,,37.8998583,32.5445583,,
224a,Taşlıpınar,,37.8176583,32.4384917,,
224d,Taşlıpınar,,37.8177583,32.438375,,
2250a,Gürhanlar,,37.9003166,32.5430583,,
2251a,Meram,,37.9035334,32.5443667,,
2252a,Özkafa,,37.9057583,32.5431917,,
2253a,10632. Sk,,37.9231333,32.5305333,,
2254a,Eren,,37.905863,32.449268,,
2254d,Eren,,37.905853,32.449359,,
2255a,Oğuzyiğit,,37.9546917,32.3698083,,
2255d,Oğuzyiğit,,37.9547167,32.3696917,,
2256a,16457. Sk,,37.957218,32.368679,,
2256d,16457. Sk,,37.9571,32.36867,,
2257a,Mimarsinan,,37.9190583,32.4406833,,
2257d,Mimarsinan,,37.9190083,32.4406,,
2258a,Aslan,,37.901821,32.448329,,
2258d,Aslan,,37.901808,32.448515,,
2259a,Türk Telekom Lisesi,,37.9541583,32.490575,,
2259d,Türk Telekom Lisesi,,37.9541083,32.490725,,
225a,Dönertaş,,37.815725,32.436175,,
225d,Dönertaş,,37.815725,32.435925,,
2260a,Papatya,,37.9405,32.4929667,,
2260d,Papatya,,37.9404833,32.4931834,,
2261a,Eyüp Sultan,,37.9370166,32.4975834,,
2261d,Eyüp Sultan,,37.9372583,32.4976083,,
2262a,Özlem,,37.9369667,32.4997833,,
2262d,Özlem,,37.9372666,32.4998166,,
2263a,Cahit Zarifoğlu İlkokulu,,37.9560417,32.5075167,,
2263d,Cahit Zarifoğlu İlkokulu,,37.9559,32.5075333,,
2264a,Öztekinler,,37.95605,32.50385,,
2264d,Öztekinler,,37.9559167,32.5039334,,
2265a,Saray Bosna,,37.9556084,32.5000334,,
2265d,Saray Bosna,,37.955525,32.5002167,,
2266a,Yeni Yapı,,37.97085,32.5095667,,
2266d,Yeni Yapı,,37.9708,32.5093334,,
2267a,Şafak,,37.973075,32.51095,,
2267d,Şafak,,37.9732666,32.5109334,,
2268a,Sulutas Son Durak,,37.9282833,32.3545167,,
2268d,Sulutas Son Durak,,37.928344,32.354541,,
2269a,Maliye Lojmanları,,37.9768083,32.5021417,,
2269d,Maliye Lojmanları,,37.9767,32.5020167,,
226a,Antalya Kozağaç Kavşağı,,37.8126333,32.4334,,
226d,Antalya Kozağaç Kavşağı,,37.8129417,32.433225,,
2270a,Bardakcı,,37.975875,32.4984583,,
2270d,Bardakcı,,37.9758417,32.4984583,,
2271a,Turgut Özal,,37.987925,32.4885167,,
2271d,Turgut Özal,,37.9877417,32.488675,,
2272a,Ali Demirtaş,,37.987125,32.4865416,,
2272d,Ali Demirtaş,,37.9869251,32.4867153,,
2273a,Yazır Beyhekim Hastanesi,,37.989238,32.482453,,
2273d,Yazır Beyhekim Hastanesi,,37.9887334,32.48225,,
2274a,Yazır Numune Hastanesi,,37.9922417,32.4878083,,
2274d,Yazır Numune Hastanesi,,37.9923417,32.487925,,
2276a,Kırankaya,,38.011901,32.41398,,
2276d,Kırankaya,,38.012063,32.414049,,
2277a,Gülpazarı,,37.974708,32.513742,,
2277d,Gülpazarı,,37.974595,32.513694,,
2278a,Demre,,37.925511,32.462655,,
2278d,Demre,,37.925606,32.462629,,
2279a,Tatköy 1657. Sk,,37.960156,32.37246,,
227a,Kozağaç Parkı,,37.8062417,32.4311416,,
227d,Kozağaç Parkı,,37.8063583,32.431025,,
2280a,Park Bahçeler Daire Başkanlığı,,37.902911,32.498769,,
2280d,Park Bahçeler Daire Başkanlığı,,37.903429,32.496973,,
2281a,Site,,37.977445,32.506474,,
2281d,Site,,37.977388,32.506549,,
2282a,Güvence,,37.885775,32.4880417,,
2282d,Güvence,,37.8861083,32.488625,,
2286a,Sultan,,37.95377,32.5088,,
2286d,Sultan,,37.95382,32.50862,,
2287a,Güldeste,,37.951639,32.452196,,
2287d,Güldeste,,37.951654,32.452298,,
2288a,Yörem,,37.9372834,32.4789167,,
2289a,Gökçe,,37.9356833,32.4763333,,
2289d,Gökçe,,37.9355167,32.4763333,,
228a,Vakfe,,37.8030583,32.429175,,
228d,Vakfe,,37.803425,32.4292583,,
2290a,Güray,,37.934284,32.477965,,
2290d,Güray,,37.934309,32.478126,,
2291a,Ammar,,37.9337167,32.4882417,,
2291d,Ammar,,37.9337333,32.48835,,
2292a,Kocayayla,,37.9118417,32.4824083,,
2292d,Kocayayla,,37.911725,32.4825166,,
2293a,Hoca Ahmet Yesevi Ortaokulu,,37.954975,32.4914084,,
